City_ID,City,Lat,Lng,Max Temp,Humidity,Cloudiness,Wind Speed,Country,Date
0,dilling,12.05,29.65,22.89,29,71,4.41,SD,1702880818
1,puerto ayora,-0.7393,-90.3518,23.55,88,78,3.37,EC,1702880727
2,talnakh,69.4865,88.3972,-16.53,77,100,7.02,RU,1702880745
3,ishigaki,24.3448,124.1572,24.07,64,75,5.66,JP,1702880746
4,rabaul,-4.1967,152.1721,28.69,75,73,4.39,PG,1702880818
5,kone,-21.0595,164.8658,27.89,60,100,3.29,NC,1702880749
6,waitangi,-43.9535,-176.5597,13.79,91,54,1.79,NZ,1702880726
7,sorokyne,48.2923,39.7373,1.31,98,100,6.07,UA,1702880818
8,longyearbyen,78.2186,15.6401,-1.09,74,40,8.75,SJ,1702880731
9,pacific grove,36.6177,-121.9166,15.24,88,75,2.06,US,1702880700
10,itaituba,-4.2761,-55.9836,24.11,97,79,0.51,BR,1702880818
11,slavyanka,42.8633,131.3847,-9.24,34,0,3.88,RU,1702880818
12,green river,41.5286,-109.4662,-0.78,64,39,0.89,US,1702880819
13,grytviken,-54.2811,-36.5092,1.44,84,52,4.27,GS,1702880728
14,port elizabeth,-33.918,25.5701,23.39,64,20,7.2,ZA,1702880734
15,blackmans bay,-43.0167,147.3167,20.07,69,100,1.59,AU,1702880725
16,adamstown,-25.066,-130.1015,22.87,83,93,5.58,PN,1702880725
17,tiksi,71.6872,128.8694,-27.07,98,91,5.26,RU,1702880727
18,margaret river,-33.95,115.0667,22.73,45,6,7.77,AU,1702880549
19,port-aux-francais,-49.35,70.2167,5.26,73,67,11.0,TF,1702880728
20,purpe,64.4803,76.6897,-13.55,75,100,13.33,RU,1702880819
21,grand falls-windsor,48.9332,-55.6649,1.39,83,100,2.24,CA,1702880804
22,edinburgh of the seven seas,-37.0676,-12.3116,12.42,67,9,0.89,SH,1702880727
23,chaoyang,41.5703,120.4586,-10.36,59,1,1.7,CN,1702880819
24,olonkinbyen,70.9221,-8.7187,-2.48,76,100,2.55,SJ,1702880747
25,primorskiy,43.0983,131.5875,-9.4,34,2,4.18,RU,1702880819
26,albany,42.6001,-73.9662,11.28,92,100,0.8,US,1702880728
27,mount gambier,-37.8333,140.7667,15.29,95,100,2.76,AU,1702880819
28,sarangani,5.4033,125.4636,28.2,81,100,7.99,PH,1702880819
29,west island,-12.1568,96.8225,29.99,62,75,4.63,CC,1702880725
30,kurchum,48.5722,83.6542,-18.73,81,9,2.97,KZ,1702880819
31,celestun,20.8667,-90.4,22.41,60,40,3.29,MX,1702880819
32,yellowknife,62.456,-114.3525,-16.71,85,100,6.69,CA,1702880729
33,bargaal,11.2864,51.0773,26.0,63,85,10.74,SO,1702880819
34,ushuaia,-54.8,-68.3,8.81,61,0,2.06,AR,1702880725
35,sitka,57.0531,-135.33,2.94,81,75,2.57,US,1702880749
36,luanco,43.6152,-5.7934,5.57,94,0,1.7,ES,1702880819
37,rexburg,43.826,-111.7897,-7.27,79,0,1.54,US,1702880820
38,iqaluit,63.7506,-68.5145,-25.15,64,40,3.09,CA,1702880727
39,vorgashor,67.5833,63.95,-16.88,87,100,5.79,RU,1702880820
40,invercargill,-46.4,168.35,14.5,58,35,3.09,NZ,1702880590
41,howrah,22.5892,88.3103,22.0,49,5,3.09,IN,1702880739
42,saipan,15.1355,145.701,26.39,89,100,9.77,MP,1702880729
43,qamdo,31.1667,97.2333,-0.92,34,4,1.68,CN,1702880820
44,puerto natales,-51.7236,-72.4875,5.99,88,72,2.17,CL,1702880733
45,el granada,37.5027,-122.4694,14.39,86,75,1.54,US,1702880820
46,ust-nera,64.5667,143.2,-36.4,100,90,1.1,RU,1702880733
47,semey,50.4111,80.2275,-18.88,71,4,7.0,KZ,1702880820
48,arkhangel'sk,64.5401,40.5433,-0.94,100,100,4.0,RU,1702880820
49,yarrawonga,-36.0167,146.0,33.61,11,100,4.32,AU,1702880820
50,kapchorwa,1.3965,34.4509,21.11,51,39,1.62,UG,1702880820
51,kintampo,8.0563,-1.7306,21.76,22,13,0.97,GH,1702880820
52,marsabit,2.3284,37.9899,21.69,64,65,6.95,KE,1702880820
53,kapa'a,22.0752,-159.319,21.18,86,75,7.2,US,1702880734
54,arteche,12.2645,125.4048,27.06,87,100,5.59,PH,1702880753
55,carnarvon,-24.8667,113.6333,25.14,66,29,6.83,AU,1702880749
56,hawaiian paradise park,19.5933,-154.9731,19.46,96,78,3.88,US,1702880739
57,tsuruga,35.6455,136.0558,3.13,80,100,5.04,JP,1702880820
58,hermanus,-34.4187,19.2345,18.84,72,65,4.31,ZA,1702880735
59,yuzhno-kurilsk,44.0306,145.8556,-2.57,76,100,10.85,RU,1702880746
60,uribia,11.7139,-72.266,25.86,83,66,0.23,CO,1702880820
61,nova sintra,14.8667,-24.7167,21.64,65,6,3.46,CV,1702880736
62,jieshi,22.8134,115.8257,19.68,68,81,8.35,CN,1702880821
63,rio verde,21.9333,-99.9833,13.18,79,1,1.81,MX,1702880821
64,trairi,-3.2778,-39.2689,26.13,85,100,1.8,BR,1702880603
65,tocache,-8.1842,-76.5125,21.31,99,100,0.45,PE,1702880821
66,papao,-17.75,-149.55,27.82,75,100,3.84,PF,1702880821
67,vilyuchinsk,52.9306,158.4028,2.18,86,100,12.21,RU,1702880728
68,bilibino,68.0546,166.4372,-33.71,99,97,0.67,RU,1702880735
69,bathsheba,13.2167,-59.5167,25.34,94,40,6.69,BB,1702880821
70,boyolangu,-8.1181,111.8935,30.11,55,61,4.63,ID,1702880821
71,manismata,-2.4667,111.0333,32.04,58,26,1.99,ID,1702880821
72,freetown,8.484,-13.2299,25.11,75,97,2.01,SL,1702880822
73,georgetown,5.4112,100.3354,31.96,70,20,3.6,MY,1702880735
74,anadyr,64.75,177.4833,-23.72,84,0,6.0,RU,1702880734
75,yung shue wan,22.2333,114.1167,18.68,82,88,3.77,HK,1702880822
76,vila velha,-20.3297,-40.2925,23.97,88,0,1.54,BR,1702880822
77,kingston,17.997,-76.7936,25.53,89,40,1.03,JM,1702880583
78,longgang,37.6508,120.3286,-2.57,54,100,1.76,CN,1702880823
79,papatowai,-46.5619,169.4708,14.41,62,43,2.96,NZ,1702880736
80,ust-tsilma,65.441,52.1498,-12.99,93,100,4.47,RU,1702880823
81,mejit,10.2753,170.8646,27.0,79,96,11.16,MH,1702880729
82,tamandare,-8.7597,-35.1047,24.9,83,98,2.41,BR,1702880824
83,ribeira grande,38.5167,-28.7,17.65,98,100,3.13,PT,1702880734
84,walvis bay,-22.9575,14.5053,16.72,82,20,4.12,NA,1702880733
85,caucete,-31.6518,-68.2811,21.65,60,0,8.21,AR,1702880824
86,ilulissat,69.2167,-51.1,-11.99,56,75,8.23,GL,1702880729
87,ulaangom,49.9811,92.0667,-24.21,82,38,0.94,MN,1702880824
88,virginia beach,36.8529,-75.978,18.34,96,100,3.6,US,1702880586
89,road town,18.4167,-64.6167,26.05,73,58,10.19,VG,1702880825
90,avarua,-21.2078,-159.775,24.03,94,75,7.72,CK,1702880727
91,colonia menno,-22.3667,-59.8167,31.24,38,73,4.13,PY,1702880749
92,zouerate,22.7187,-12.4521,10.94,29,61,6.39,MR,1702880825
93,vrangel',42.7297,133.0839,-10.69,42,0,6.57,RU,1702880825
94,punta arenas,-53.15,-70.9167,9.06,71,75,7.72,CL,1702880524
95,gonabad,34.3529,58.6837,11.25,28,65,1.54,IR,1702880826
96,simanggang,1.2472,111.4528,30.99,79,40,1.54,MY,1702880826
97,ocean city,39.2776,-74.5746,16.14,93,100,7.6,US,1702880570
98,college,64.8569,-147.8028,-12.74,85,100,1.54,US,1702880731
99,sao felix do xingu,-6.6447,-51.995,21.5,95,99,0.63,BR,1702880677
100,la foa,-21.7108,165.8276,26.09,70,100,3.79,NC,1702880826
101,labytnangi,66.6572,66.4183,-13.58,95,100,5.71,RU,1702880533
102,ixmiquilpan,20.4833,-99.2333,11.15,70,19,0.85,MX,1702880827
103,vilhena,-12.7406,-60.1458,23.09,77,89,1.12,BR,1702880827
104,meadow lake,34.8014,-106.5436,5.71,46,97,2.28,US,1702880827
105,la'ie,21.6477,-157.9253,22.47,69,98,7.57,US,1702880739
106,rethymno,35.3647,24.4714,12.79,74,92,6.28,GR,1702880827
107,haparanda,65.8355,24.1368,-2.97,84,44,5.74,SE,1702880827
108,wailua homesteads,22.0669,-159.378,20.44,88,75,7.2,US,1702880737
109,stanley,54.868,-1.6985,11.4,89,0,6.69,GB,1702880732
110,vidyayevo,69.3191,32.8049,-5.81,89,82,6.03,RU,1702880827
111,illizi,26.4833,8.4667,6.89,50,12,4.16,DZ,1702880827
112,ambatofinandrahana,-20.55,46.8,23.78,66,93,1.23,MG,1702880828
113,chinde,26.8418,88.0763,16.78,47,18,2.9,NP,1702880828
114,afaahiti,-17.75,-149.2833,26.93,80,100,5.06,PF,1702880734
115,bredasdorp,-34.5322,20.0403,18.86,69,89,3.0,ZA,1702880731
116,isafjordur,66.0755,-23.124,-3.91,85,99,2.14,IS,1702880735
117,bamboo flat,11.7,92.7167,30.05,79,40,3.6,IN,1702880738
118,cidreira,-30.1811,-50.2056,22.73,96,91,4.89,BR,1702880828
119,happy valley-goose bay,53.3168,-60.3315,0.17,64,75,3.09,CA,1702880828
120,rondonopolis,-16.4708,-54.6356,23.52,39,13,0.67,BR,1702880828
121,progreso,21.2833,-89.6667,20.62,64,41,3.71,MX,1702880828
122,lebu,-37.6167,-73.65,9.36,76,2,8.36,CL,1702880742
123,hailey,43.5196,-114.3153,-2.08,74,0,4.63,US,1702880828
124,muncar,-8.4333,114.3333,30.2,54,17,4.2,ID,1702880828
125,laguna,38.421,-121.4238,11.76,87,75,3.6,US,1702880734
126,cedeira,43.6797,-8.0209,3.54,75,0,1.74,ES,1702880828
127,flin flon,54.7682,-101.865,-16.29,95,6,2.4,CA,1702880653
128,cacu,-18.5567,-51.1308,24.33,41,33,1.1,BR,1702880828
129,klaksvik,62.2266,-6.589,7.51,83,97,9.75,FO,1702880829
130,nemuro,43.3236,145.575,-3.52,58,98,10.51,JP,1702880753
131,funafuti,-8.5243,179.1942,32.0,79,40,1.03,TV,1702880829
132,fort bragg,35.139,-79.006,13.75,89,100,6.17,US,1702880748
133,kapoeta,4.7717,33.5903,30.15,35,16,9.86,SS,1702880829
134,tolanaro,-25.0319,46.9987,29.04,70,40,5.14,MG,1702880732
135,xunchang,28.4543,104.715,7.84,45,83,0.6,CN,1702880829
136,laojunmiao,39.8333,97.7333,-9.7,60,0,1.88,CN,1702880750
137,houlton,46.1262,-67.8403,7.23,93,100,5.66,US,1702880829
138,princeville,45.7668,-61.2985,7.17,94,100,3.09,CA,1702880829
139,petropavlovsk-kamchatsky,53.0452,158.6483,1.36,84,75,17.43,RU,1702880745
140,gornozavodsk,58.3758,58.3211,-12.37,94,100,3.57,RU,1702880829
141,alaghsas,17.0187,8.0168,14.94,31,86,3.09,NE,1702880749
142,jamestown,42.097,-79.2353,7.77,100,100,2.57,US,1702880743
143,haiku-pauwela,20.9219,-156.3051,20.02,92,40,5.14,US,1702880730
144,iskateley,67.6803,53.1512,-13.88,91,98,8.49,RU,1702880494
145,revda,56.801,59.9303,-10.47,87,72,3.51,RU,1702880829
146,remire-montjoly,4.9167,-52.2667,25.02,94,20,0.0,GF,1702880829
147,constantia,44.1833,28.65,1.5,71,100,6.64,RO,1702880730
148,kotido,2.9806,34.1331,25.12,45,45,8.45,UG,1702880830
149,tandalti,13.0167,31.8667,26.01,27,11,5.53,SD,1702880830
150,pimentel,-6.8367,-79.9342,22.16,78,0,7.72,PE,1702880830
151,pont rouge,48.8833,-72.0825,6.16,97,100,4.38,CA,1702880830
152,rutland,43.6167,-73.0162,9.38,97,100,5.66,US,1702880830
153,es castell,39.8795,4.2854,9.38,87,40,3.09,ES,1702880830
154,cabo san lucas,22.8909,-109.9124,23.2,88,98,0.67,MX,1702880449
155,vila franca do campo,37.7167,-25.4333,19.23,90,97,3.41,PT,1702880830
156,qaqortoq,60.7167,-46.0333,-1.5,95,100,4.53,GL,1702880741
157,lihue,21.9789,-159.3672,20.77,85,75,7.2,US,1702880741
158,inhambane,-23.865,35.3833,27.99,83,75,0.0,MZ,1702880754
159,paka,4.6374,103.4368,27.96,89,40,4.12,MY,1702880830
160,port mathurin,-19.6833,63.4167,26.64,81,69,6.43,MU,1702880736
161,fortuna,40.5982,-124.1573,13.53,96,75,6.69,US,1702880751
162,alice springs,-23.7,133.8833,43.75,6,15,5.14,AU,1702880544
163,el porvenir,13.7617,-87.3458,19.63,80,5,3.45,HN,1702880830
164,spirit lake,43.4222,-95.1022,-2.32,60,31,5.81,US,1702880831
165,sinabang,2.4803,96.3801,25.45,90,100,1.92,ID,1702880831
166,totness,5.8833,-56.3167,25.17,89,66,3.59,SR,1702880831
167,itoman,26.1247,127.6694,21.01,64,20,6.17,JP,1702880748
168,adelia maria,-33.6315,-64.021,17.02,79,99,1.79,AR,1702880831
169,keflavik,64.0049,-22.5624,1.24,93,75,2.57,IS,1702880831
170,al ghayzah,16.2079,52.176,23.5,36,0,2.65,YE,1702880831
171,newman,37.3138,-121.0208,11.25,60,74,1.79,US,1702880831
172,thompson,55.7435,-97.8558,-19.91,84,75,3.6,CA,1702880740
173,mar del plata,-38.0023,-57.5575,17.01,84,0,3.6,AR,1702880728
174,uturoa,-16.7333,-151.4333,26.94,75,96,1.89,PF,1702880731
175,shache,38.4167,77.2406,-0.05,31,0,1.55,CN,1702880832
176,chertkovo,49.3847,40.1547,0.61,99,100,5.2,RU,1702880832
177,baruun-urt,46.6806,113.2792,-20.78,84,100,3.47,MN,1702880832
178,hell-ville,-13.4,48.2667,27.4,75,66,2.49,MG,1702880832
179,dudinka,69.4058,86.1778,-17.4,83,100,13.41,RU,1702880832
180,vernon,50.2581,-119.2691,3.5,87,94,0.51,CA,1702880747
181,sirte,31.2089,16.5887,14.38,68,0,3.43,LY,1702880832
182,cockburn town,21.4612,-71.1419,26.26,88,67,11.76,TC,1702880745
183,zhangye,38.9342,100.4517,-7.11,48,0,3.66,CN,1702880832
184,nadi,-17.8,177.4167,30.0,70,40,3.09,FJ,1702880600
185,kayangel,8.0823,134.7173,28.48,76,47,8.12,PW,1702880753
186,namibe,-15.1961,12.1522,21.09,77,96,2.17,AO,1702880744
187,saint-pierre,-21.3393,55.4781,30.32,71,99,2.26,RE,1702880573
188,enewetak,11.3474,162.3373,27.32,83,44,10.95,MH,1702880833
189,antsiranana,-12.2787,49.2917,31.42,58,40,3.09,MG,1702880833
190,lewistown,40.5992,-77.5714,10.45,100,100,0.0,US,1702880833
191,zarghun shahr,32.8473,68.4457,4.34,39,0,1.62,AF,1702880833
192,maksatikha,57.797,35.8825,-3.45,96,73,4.48,RU,1702880833
193,alofi,-19.0595,-169.9187,26.94,78,42,7.2,NU,1702880728
194,udachny,66.4167,112.4,-33.84,100,98,1.33,RU,1702880742
195,nizhniy odes,63.6445,54.856,-14.47,94,100,4.72,RU,1702880833
196,puerto baquerizo moreno,-0.9,-89.6,23.6,85,43,3.65,EC,1702880541
197,bethel,41.3712,-73.414,14.32,93,100,4.63,US,1702880725
198,tura,25.5198,90.2201,23.14,52,5,1.57,IN,1702880736
199,yunfu,22.9306,112.0373,14.17,71,99,1.66,CN,1702880834
200,matamoros,25.5333,-103.25,12.28,67,6,0.47,MX,1702880586
201,madang,-5.2246,145.7966,28.98,75,100,2.52,PG,1702880834
202,aykhal,66.0,111.5,-26.82,100,95,1.54,RU,1702880834
203,acapulco de juarez,16.8634,-99.8901,25.9,89,40,2.06,MX,1702880834
204,archangelos,36.2149,28.1149,15.17,78,2,2.19,GR,1702880834
205,utrik,11.2278,169.8474,26.76,81,56,11.23,MH,1702880724
206,al jawf,29.5,38.75,13.9,35,100,2.27,SA,1702880834
207,green,40.9459,-81.4832,5.11,94,100,4.12,US,1702880834
208,codrington,-38.2667,141.9667,16.04,87,97,5.28,AU,1702880730
209,ovalle,-30.5983,-71.2003,17.74,59,0,0.91,CL,1702880834
210,hithadhoo,-0.6,73.0833,28.65,75,46,5.27,MV,1702880736
211,mukalla,14.5425,49.1242,24.65,19,18,2.94,YE,1702880834
212,igarka,67.4667,86.5833,-20.25,93,99,10.03,RU,1702880834
213,ta`u,-14.2336,-169.5144,27.5,83,93,4.73,AS,1702880834
214,coro,11.4045,-69.6734,25.25,87,77,4.52,VE,1702880834
215,chernyshevskiy,63.0128,112.4714,-38.51,100,50,0.73,RU,1702880835
216,idabel,33.8957,-94.8263,6.0,100,20,1.54,US,1702880773
217,rybinsk,58.0446,38.8426,-2.6,92,74,4.02,RU,1702880766
218,lata,40.1629,-8.3327,4.59,67,0,1.61,PT,1702880835
219,barcelona,41.3888,2.159,9.19,77,20,6.69,ES,1702880617
220,nadym,65.5333,72.5167,-13.15,92,100,11.17,RU,1702880835
221,balsas,-7.5325,-46.0356,25.77,70,79,2.7,BR,1702880835
222,semdinli,37.3051,44.5742,2.02,81,98,2.88,TR,1702880835
223,saint-louis,16.3333,-15.0,17.8,19,100,4.59,SN,1702880835
224,al bab,36.3699,37.5179,6.59,40,19,2.82,SY,1702880835
225,tocopilla,-22.092,-70.1979,19.34,79,49,1.7,CL,1702880835
226,tsetserleg,47.475,101.4542,-20.91,71,100,0.73,MN,1702880835
227,lompoc,34.6391,-120.4579,15.94,43,0,0.45,US,1702880635
228,zhosaly,45.4878,64.0781,1.92,78,100,5.76,KZ,1702880835
229,manicore,-5.8092,-61.3003,23.04,97,100,0.23,BR,1702880836
230,itamaraca,-7.7478,-34.8256,25.03,81,100,2.74,BR,1702880836
231,saint-philippe,-21.3585,55.7679,28.39,71,100,2.74,RE,1702880733
232,pandan,14.0453,124.1694,27.05,86,100,7.5,PH,1702880836
233,puerto leguizamo,-0.1934,-74.7819,22.2,99,99,0.61,CO,1702880836
234,tromso,69.6496,18.957,1.01,86,75,1.03,NO,1702880836
235,maragogi,-9.0122,-35.2225,24.89,83,91,2.48,BR,1702880581
236,tvoroyri,61.5556,-6.8111,8.44,83,100,10.81,FO,1702880836
237,badger,64.8,-147.5333,-12.79,88,40,1.54,US,1702880731
238,axim,4.8699,-2.2405,25.79,85,31,1.34,GH,1702880837
239,ito,34.9667,139.0833,9.41,67,74,1.98,JP,1702880837
240,kirakira,-10.4544,161.9205,26.98,78,93,2.07,SB,1702880735
241,puerto rico,-26.796,-55.024,23.4,87,57,1.43,AR,1702880566
242,chonchi,-42.6128,-73.8092,3.95,95,17,1.01,CL,1702880734
243,mopti,14.6667,-4.0,19.12,21,100,6.2,ML,1702880837
244,punta alta,-38.8759,-62.0736,12.81,69,0,7.05,AR,1702880837
245,kailua-kona,19.6406,-155.9956,22.98,86,0,2.57,US,1702880730
246,dryden,49.7833,-92.7503,-10.84,73,100,7.72,CA,1702880837
247,luderitz,-26.6481,15.1594,19.89,50,1,5.57,NA,1702880753
248,mount pearl,47.5166,-52.7813,1.85,87,100,10.8,CA,1702880734
249,leh,34.1667,77.5833,-7.55,50,34,1.26,IN,1702880838
250,kapuskasing,49.4169,-82.4331,0.05,100,100,4.12,CA,1702880739
251,egilsstadir,65.2653,-14.3948,-3.05,74,0,1.03,IS,1702880838
252,alakurtti,66.9672,30.3491,-4.1,86,21,4.26,RU,1702880838
253,labuan,5.2767,115.2417,32.2,62,20,2.06,MY,1702880838
254,katsuura,35.1333,140.3,11.01,38,85,2.2,JP,1702880838
255,dakhla,23.6848,-15.958,16.01,36,100,8.23,EH,1702880776
256,porto novo,6.4965,2.6036,24.9,86,20,1.62,BJ,1702880838
257,maardu,59.4767,25.025,3.67,91,100,7.2,EE,1702880838
258,castillos,-34.1667,-53.8333,19.36,92,63,2.37,UY,1702880748
259,benguela,-12.5763,13.4055,25.01,89,100,1.49,AO,1702880838
260,kodiak,57.79,-152.4072,-4.27,80,0,2.57,US,1702880748
261,sainte-anne-des-monts,49.124,-66.4924,8.93,71,100,7.72,CA,1702880838
262,plesetsk,62.708,40.2916,-0.84,91,100,5.26,RU,1702880838
263,litochoro,40.1006,22.4978,-0.73,49,0,1.03,GR,1702880838
264,port alfred,-33.5906,26.891,22.32,71,56,2.68,ZA,1702880746
265,loen,7.7601,168.2307,27.66,81,100,11.47,MH,1702880839
266,san sebastian de la gomera,28.0916,-17.1133,18.2,51,0,1.03,ES,1702880839
267,kamina,-8.7386,24.9906,21.33,92,100,1.0,CD,1702880744
268,dumingag,8.1692,123.3506,25.54,93,100,2.03,PH,1702880839
269,praia da vitoria,38.7333,-27.0667,19.14,88,20,6.68,PT,1702880839
270,misratah,32.3754,15.0925,16.22,63,0,4.91,LY,1702880839
271,tofol,5.3248,163.0078,29.88,74,75,10.29,FM,1702880839
272,turkmenbasy,40.0222,52.9552,-0.57,80,0,5.14,TM,1702880725
273,gohana,29.1333,76.7,20.43,27,0,4.42,IN,1702880839
274,letlhakane,-21.4167,25.5833,24.42,70,96,2.62,BW,1702880839
275,santanyi,39.3546,3.1291,10.07,73,55,3.98,ES,1702880839
276,champerico,14.3,-91.9167,25.49,81,3,1.7,GT,1702880752
277,whitehorse,60.7161,-135.0538,-0.57,53,40,1.03,CA,1702880728
278,yauya,-8.9833,-77.3,10.39,83,98,0.8,PE,1702880839
279,kupang,-10.1667,123.5833,35.32,52,40,5.66,ID,1702880839
280,rio grande,-32.035,-52.0986,23.04,92,72,2.7,BR,1702880801
281,colonia,50.9333,6.95,5.46,89,0,2.06,DE,1702880535
282,dubbo,-32.25,148.6167,38.07,13,74,3.09,AU,1702880840
283,canutama,-6.5339,-64.3831,23.5,98,91,0.79,BR,1702880840
284,mtwara,-10.2667,40.1833,29.54,66,27,3.93,TZ,1702880840
285,as sulayyil,20.4607,45.5779,14.14,32,0,1.2,SA,1702880727
286,mitu,1.1983,-70.1733,22.42,98,99,0.47,CO,1702880840
287,arawa,-6.2132,155.5367,28.47,79,60,1.22,PG,1702880840
288,waterloo,43.4668,-80.5164,5.92,100,100,2.06,CA,1702880797
289,kruisfontein,-34.0033,24.7314,22.16,58,0,4.61,ZA,1702880749
290,youkounkoun,12.5333,-13.1333,23.08,17,100,3.27,GN,1702880840
291,palmer,42.1584,-72.3287,14.36,79,100,1.79,US,1702880742
292,khandyga,62.6667,135.6,-46.67,100,98,0.45,RU,1702880840
293,bosansko grahovo,44.1794,16.3639,4.01,63,6,2.6,BA,1702880840
294,caleta olivia,-46.4393,-67.5281,11.36,56,74,4.22,AR,1702880840
295,stornoway,58.2093,-6.3865,7.98,86,75,2.57,GB,1702880840
296,minas de marcona,-15.2119,-75.1103,15.71,86,79,4.3,PE,1702880840
297,mareeba,-17.0,145.4333,27.47,68,100,2.84,AU,1702880840
298,tamanrasset,22.785,5.5228,4.95,52,0,2.06,DZ,1702880841
299,roma,43.2128,-75.4557,10.6,97,100,4.12,US,1702880841
300,bac lieu,9.285,105.7244,30.07,63,63,8.97,VN,1702880841
301,bayramaly,37.6185,62.1671,5.86,43,47,8.84,TM,1702880841
302,east ballina,-28.8667,153.5833,32.11,78,16,8.82,AU,1702880841
303,roxas,11.5853,122.7511,26.75,86,100,6.87,PH,1702880841
304,gadzhiyevo,69.2551,33.3362,-7.11,90,89,5.77,RU,1702880841
305,san antonio de pale,-1.4014,5.6325,25.36,91,100,4.18,GQ,1702880754
306,terrace,54.5163,-128.6035,-1.05,93,100,2.57,CA,1702880841
307,peace river,56.2501,-117.286,-0.83,80,100,5.66,CA,1702880841
308,williams lake,52.1415,-122.1445,0.76,99,100,2.57,CA,1702880741
309,mount isa,-20.7333,139.5,38.87,25,81,4.63,AU,1702880750
310,thurgoona,-36.0451,146.9919,33.22,69,98,1.34,AU,1702880841
311,port lincoln,-34.7333,135.8667,19.71,69,76,8.68,AU,1702880743
312,acarau,-2.8856,-40.12,25.83,86,100,2.38,BR,1702880728
313,queenstown,-31.8976,26.8753,20.32,69,92,1.06,ZA,1702880841
314,usogorsk,63.4106,48.6872,-12.96,95,100,3.35,RU,1702880733
315,horta,38.5333,-28.6333,17.23,98,100,3.58,PT,1702880842
316,guerrero negro,27.9769,-114.0611,19.29,47,98,1.15,MX,1702880842
317,kandahar,31.0,65.75,10.36,42,0,1.7,AF,1702880777
318,pangai,-19.8,-174.35,28.06,78,75,8.23,TO,1702880842
319,harnai,30.1005,67.9374,15.9,24,0,1.26,PK,1702880842
320,lorengau,-2.0226,147.2712,28.56,78,50,3.4,PG,1702880842
321,vadso,70.0744,29.7487,0.09,93,20,10.8,NO,1702880737
322,auki,-8.7676,160.7034,28.23,63,45,1.02,SB,1702880842
323,lat yao,15.751,99.7893,33.69,50,80,2.41,TH,1702880842
324,oume,35.7839,139.2431,10.26,20,6,2.05,JP,1702880842
325,weno,7.4515,151.8468,28.06,80,45,6.96,FM,1702880842
326,ciudad rio bravo,25.9833,-98.1,13.29,58,0,2.51,MX,1702880842
327,qarah,34.1527,36.7415,6.42,86,31,0.5,SY,1702880842
328,nizhnyaya salda,58.0776,60.7202,-12.06,91,99,3.85,RU,1702880843
329,belmonte,-15.8631,-38.8828,24.05,84,14,1.78,BR,1702880843
330,hadibu,12.65,54.0333,25.51,75,93,7.78,YE,1702880742
331,flying fish cove,-10.4217,105.6791,28.82,65,75,4.63,CX,1702880642
332,aasiaat,68.7098,-52.8699,-13.55,76,100,7.96,GL,1702880750
333,rivera,-30.9053,-55.5508,23.87,93,25,2.9,UY,1702880843
334,makokou,0.5738,12.8642,22.6,95,87,0.91,GA,1702880843
335,susuman,62.7833,148.1667,-32.23,100,96,0.45,RU,1702880843
336,klyuchi,52.2667,79.1667,-16.16,73,11,4.42,RU,1702880725
337,mana,5.6592,-53.7767,25.12,92,80,2.91,GF,1702880843
338,mahibadhoo,3.7833,72.9667,28.53,72,17,2.78,MV,1702880748
339,berdigestyakh,62.0989,126.6992,-39.3,100,86,1.45,RU,1702880843
340,ciudad melchor muzquiz,27.8833,-101.5167,13.67,51,10,0.28,MX,1702880843
341,bengkulu,-3.8004,102.2655,27.29,81,59,4.22,ID,1702880843
342,nar'yan-mar,67.6713,53.087,-13.83,91,98,8.49,RU,1702880736
343,arraial do cabo,-22.9661,-42.0278,23.42,93,11,5.93,BR,1702880728
344,hamilton,39.1834,-84.5333,5.79,88,100,5.14,US,1702880674
345,tateyama,34.9833,139.8667,10.96,42,79,2.0,JP,1702880843
346,severo-yeniseyskiy,60.3725,93.0408,-27.46,98,32,0.45,RU,1702880843
347,harstad,68.799,16.5293,0.64,94,86,4.92,NO,1702880844
348,raduzhnyy,62.0961,77.475,-13.97,74,100,8.9,RU,1702880844
349,ulanhot,46.0833,122.0833,-17.49,55,53,0.15,CN,1702880844
350,cheremshan,54.6667,51.5,-4.66,96,100,6.14,RU,1702880844
351,bikenibeu village,1.3673,173.1241,25.98,94,100,3.09,KI,1702880727
352,kourou,5.1552,-52.6478,25.03,92,69,2.63,GF,1702880844
353,kerikeri,-35.2268,173.9474,21.83,71,81,2.55,NZ,1702880733
354,sorong,-0.8833,131.25,30.07,66,56,3.87,ID,1702880745
355,greenville,35.6127,-77.3663,16.01,97,100,4.12,US,1702880844
356,novodvinsk,64.4165,40.8122,-1.14,97,100,4.48,RU,1702880844
357,shagonar,51.5333,92.8,-25.9,91,40,0.69,RU,1702880844
358,azambuja,39.0703,-8.8682,8.27,77,0,2.03,PT,1702880844
359,miringa,10.7312,12.1463,18.21,25,3,2.69,NG,1702880844
360,pizarro,4.9533,-77.366,25.49,91,76,0.23,CO,1702880844
361,konarka,19.9,86.1167,24.22,32,86,4.3,IN,1702880844
362,suntar,62.1444,117.6319,-35.93,100,81,1.18,RU,1702880845
363,i-n-salah,27.1935,2.4607,7.38,59,0,5.81,DZ,1702880845
364,panama city beach,30.1766,-85.8055,10.05,82,0,3.09,US,1702880845
365,pamandzi,-12.7967,45.2794,28.88,79,75,2.06,YT,1702880845
366,zyryanovsk,49.7386,84.2719,-23.59,89,6,0.27,KZ,1702880845
367,mishkovo-pohorilove,46.9995,32.118,5.41,85,100,5.6,UA,1702880845
368,morondava,-20.2833,44.2833,29.04,68,88,2.48,MG,1702880845
369,escanaba,45.7453,-87.0646,2.17,80,100,3.09,US,1702880845
370,navia,43.5354,-6.7194,5.42,67,0,1.62,ES,1702880845
371,benghazi,32.1167,20.0667,15.92,71,0,5.59,LY,1702880845
372,rongelap,11.1635,166.8941,26.92,81,89,11.05,MH,1702880740
373,taulaga,-11.0553,-171.0883,28.81,74,93,1.7,AS,1702880845
374,chibougamau,49.9168,-74.3659,2.79,93,100,6.69,CA,1702880741
375,enriquillo,17.9,-71.2333,24.61,89,64,4.17,DO,1702880845
376,touros,-5.1989,-35.4608,26.04,81,92,4.33,BR,1702880744
377,khovd,48.0056,91.6419,-19.54,71,84,0.85,MN,1702880846
378,kismayo,-0.3582,42.5454,29.03,74,84,7.59,SO,1702880846
379,pisco,-13.7,-76.2167,20.03,88,0,4.63,PE,1702880739
380,dalandzadgad,43.5708,104.425,-18.12,77,68,10.51,MN,1702880747
381,dunay,42.8803,132.3375,-13.49,54,32,7.46,RU,1702880846
382,puerto deseado,-47.7503,-65.8938,9.74,53,94,1.89,AR,1702880846
383,janakpur,26.7183,85.9065,23.44,31,37,2.94,NP,1702880846
384,port augusta,-32.5,137.7667,35.03,19,100,5.75,AU,1702880846
385,ashland,40.8167,-82.2665,4.93,96,99,4.41,US,1702880846
386,tsiombe,-25.3,45.4833,28.88,50,57,4.77,MG,1702880846
387,hilo,19.7297,-155.09,20.85,94,100,4.12,US,1702880846
388,okhotsk,59.3833,143.3,-21.03,79,4,9.15,RU,1702880749
389,begoro,6.3871,-0.3774,20.76,47,31,1.28,GH,1702880846
390,rundu,-17.9333,19.7667,23.65,67,100,1.43,NA,1702880847
391,campo grande,-20.4428,-54.6464,26.75,61,0,3.09,BR,1702880826
392,posto fiscal rolim de moura,-13.0833,-62.2667,25.64,78,86,1.51,BR,1702880847
393,trinidad,-14.8333,-64.9,24.27,85,37,1.69,BO,1702880847
394,markovo,57.3206,107.0881,-26.1,89,98,0.95,RU,1702880847
395,capri,40.5507,14.2426,10.72,59,0,1.68,IT,1702880847
396,richards bay,-28.783,32.0377,27.21,74,20,4.2,ZA,1702880847
397,tezu,27.9167,96.1667,24.89,30,30,1.58,IN,1702880847
398,ishikawa,26.4233,127.8214,20.98,60,84,6.71,JP,1702880847
399,whangarei,-35.7317,174.3239,20.61,80,99,0.72,NZ,1702880601
400,nacozari viejo,30.4,-109.65,10.88,23,62,2.03,MX,1702880847
401,moncao,42.0789,-8.4808,5.64,63,0,1.39,PT,1702880847
402,puntarenas,9.9763,-84.8384,25.64,75,100,2.12,CR,1702880848
403,north bend,43.4065,-124.2243,11.71,76,100,3.6,US,1702880848
404,fale old settlement,-9.3852,-171.2468,29.07,74,78,2.7,TK,1702880730
405,new norfolk,-42.7826,147.0587,20.72,68,100,0.84,AU,1702880740
406,dwarka,22.2394,68.9678,24.13,48,97,9.82,IN,1702880848
407,nagqu,31.5,92.0,-7.31,48,1,2.19,CN,1702880848
408,mandera,3.9366,41.867,28.6,45,23,7.05,KE,1702880740
409,ar rutbah,33.0381,40.2848,9.88,84,0,3.33,IQ,1702880848
410,new yekepa,7.5794,-8.5378,18.45,36,81,1.73,LR,1702880848
411,ketchikan,55.3422,-131.6461,5.99,93,100,0.0,US,1702880848
412,chubek,37.6137,69.7061,10.04,25,0,1.81,TJ,1702880848
413,san agustin de valle fertil,-30.6335,-67.4682,22.43,52,28,2.29,AR,1702880848
414,vallenar,-28.5708,-70.7581,20.31,49,0,0.79,CL,1702880848
415,crane,31.3974,-102.3501,11.55,35,25,3.82,US,1702880848
416,chauk,20.8833,94.8167,27.38,48,4,1.86,MM,1702880848
417,el calafate,-50.3408,-72.2768,8.0,57,47,4.48,AR,1702880848
418,bonthe,7.5264,-12.505,23.6,73,93,1.94,SL,1702880849
419,antanifotsy,-19.65,47.3167,23.25,67,97,2.19,MG,1702880849
420,boryeong,36.3493,126.5977,-2.02,67,100,3.86,KR,1702880849
421,la passe,45.5549,-0.8967,2.77,74,0,1.73,FR,1702880849
422,kunyang,27.6658,120.5658,7.9,79,100,1.57,CN,1702880849
423,hassi messaoud,31.6804,6.0729,5.92,87,20,2.06,DZ,1702880849
424,longboat key,27.4125,-82.659,18.89,82,20,4.63,US,1702880849
425,santa elena de uairen,4.6167,-61.1333,21.45,76,76,1.4,VE,1702880849
426,kaohsiung,22.6163,120.3133,25.97,62,75,4.12,TW,1702880821
427,kyzylorda,44.8528,65.5092,1.01,80,75,6.0,KZ,1702880849
428,tazovsky,67.4667,78.7,-13.53,76,100,11.01,RU,1702880613
429,gizo,-8.103,156.8419,27.9,70,48,3.3,SB,1702880738
430,yerofey pavlovich,53.9667,121.9667,-23.34,66,36,1.39,RU,1702880849
431,tazacorte,28.629,-17.9293,17.54,73,100,4.63,ES,1702880849
432,hasaki,35.7333,140.8333,12.94,38,62,5.1,JP,1702880744
433,quellon,-43.1167,-73.6167,6.03,86,32,2.17,CL,1702880850
434,kirensk,57.7853,108.1119,-26.13,93,97,0.89,RU,1702880850
435,nuku'alofa,-21.1333,-175.2,27.19,78,20,6.69,TO,1702880729
436,usinsk,65.9939,57.5281,-13.78,88,98,9.27,RU,1702880850
437,saint-francois,46.4154,3.9054,-1.85,100,100,0.51,FR,1702880850
438,urucara,-2.5364,-57.76,24.06,94,59,1.18,BR,1702880850
439,cascais,38.6979,-9.4215,8.92,83,0,3.13,PT,1702880850
440,sisimiut,66.9395,-53.6735,-11.0,73,100,6.84,GL,1702880750
441,charkhi dadri,28.6,76.2667,20.25,27,0,3.83,IN,1702880850
442,lagos,6.5833,3.75,25.18,80,24,1.42,NG,1702880824
443,nouadhibou,20.931,-17.0347,16.99,31,72,9.26,MR,1702880850
444,kununurra,-15.7667,128.7333,39.99,35,29,3.6,AU,1702880474
445,bahia blanca,-38.7196,-62.2724,12.51,66,0,5.39,AR,1702880604
446,daru,-9.0763,143.2092,28.55,81,100,3.85,PG,1702880850
447,gundorovskiy,46.7805,41.8968,2.55,98,100,7.37,RU,1702880850
448,camalu,30.85,-116.0667,18.11,41,100,0.38,MX,1702880851
449,nakhon nayok,14.1667,101.1,32.59,45,34,0.58,TH,1702880851
450,los llanos de aridane,28.6585,-17.9182,15.86,72,100,4.92,ES,1702880736
451,lluta,-16.0147,-72.0142,12.45,72,86,0.96,PE,1702880851
452,san patricio,28.017,-97.5169,12.92,60,0,1.79,US,1702880727
453,inarajan village,13.2736,144.7484,29.54,92,90,8.67,GU,1702880851
454,island harbour,50.724,-1.2758,11.1,83,100,3.13,GB,1702880851
455,portland,45.5234,-122.6762,7.19,74,75,5.36,US,1702880134
456,puerto cabezas,14.0351,-83.3888,23.2,73,69,6.51,NI,1702880851
457,deschutes river woods,43.9915,-121.3584,3.22,82,100,1.54,US,1702880851
458,kalaleh,37.3807,55.4916,6.78,93,100,2.06,IR,1702880851
459,big bend,-26.8167,31.9333,28.37,65,19,2.92,SZ,1702880851
460,atafu village,-8.5421,-172.5159,29.54,69,86,2.63,TK,1702880740
461,boca suno,-0.7167,-77.1333,21.32,99,99,0.35,EC,1702880851
462,maintirano,-18.0667,44.0167,30.11,68,75,3.02,MG,1702880851
463,carutapera,-1.195,-46.02,25.55,86,97,1.8,BR,1702880852
464,los osos,35.3111,-120.8324,16.66,53,97,2.63,US,1702880585
465,el abiodh sidi cheikh,32.893,0.5484,1.66,82,43,4.3,DZ,1702880852
466,taro,-8.3862,115.28,26.03,50,22,2.18,ID,1702880852
467,lepsy,46.235,78.9456,-8.22,78,28,3.91,KZ,1702880852
468,gisborne,-38.6533,178.0042,19.83,72,86,1.32,NZ,1702880852
469,barguzin,53.6167,109.6167,-21.43,95,95,0.42,RU,1702880658
470,yinchuan,38.4681,106.2731,-3.95,39,0,0.37,CN,1702880614
471,naze,28.3667,129.4833,14.51,68,94,5.02,JP,1702880702
472,trzcianka,53.0406,16.4563,5.4,85,35,6.6,PL,1702880852
473,arkalyk,50.2486,66.9114,-3.76,96,100,5.15,KZ,1702880852
474,pereira barreto,-20.6383,-51.1092,28.65,37,94,1.18,BR,1702880852
475,luena,-11.7833,19.9167,18.21,95,100,0.95,AO,1702880852
476,wenshui,28.4506,106.5267,1.5,67,99,1.13,CN,1702880852
477,caluula,11.9661,50.7569,25.27,63,65,8.37,SO,1702880853
478,tymovskoye,50.8456,142.655,-13.6,95,100,2.16,RU,1702880853
479,antonio enes,-16.2325,39.9086,30.95,59,85,3.3,MZ,1702880853
480,malango,-2.9627,119.9001,25.9,86,99,0.65,ID,1702880853
481,luwuk,-0.9516,122.7875,29.79,77,90,0.2,ID,1702880853
482,puerto penasco,31.3167,-113.5333,19.88,39,97,1.73,MX,1702880853
483,cozumel,20.5083,-86.9458,23.3,83,2,4.59,MX,1702880853
484,chust,41.0094,71.2287,3.66,45,26,1.41,UZ,1702880853
485,camabatela,-8.1881,15.375,18.73,99,100,1.16,AO,1702880853
486,selfoss,63.9331,-20.9971,0.02,88,94,1.99,IS,1702880743
487,barcelos,41.5388,-8.6151,4.91,69,0,1.7,PT,1702880853
488,kiunga,-6.1219,141.2906,30.0,78,98,0.69,PG,1702880853
489,nyurba,63.2842,118.3319,-39.66,100,99,1.84,RU,1702880853
490,maua,-23.6678,-46.4614,24.09,80,89,1.06,BR,1702880760
491,peterhead,57.5058,-1.7981,6.36,92,54,2.09,GB,1702880750
492,baiti,13.745,-14.7482,22.11,16,100,5.99,SN,1702880854
493,north platte,41.1239,-100.7654,0.7,73,0,3.09,US,1702880854
494,shimoda,34.6667,138.95,10.2,57,78,0.6,JP,1702880854
495,tidjikja,18.5564,-11.4271,12.72,25,86,9.15,MR,1702880854
496,dunedin,-45.8742,170.5036,16.0,59,63,1.34,NZ,1702880854
497,paradip garh,20.3167,86.6167,24.57,34,50,4.51,IN,1702880854
498,mili,6.0815,171.735,26.05,88,100,6.27,MH,1702880749
499,rudnyy,52.9594,63.1206,-11.87,96,100,3.24,KZ,1702880854
500,shuangjiang,26.1547,109.7138,-1.11,89,100,2.29,CN,1702880854
501,akjoujt,19.6969,-14.4164,14.47,23,81,7.46,MR,1702880854
502,vanino,49.0869,140.2543,-17.26,83,87,7.26,RU,1702880854
503,razole,16.4833,81.8333,28.34,53,47,3.02,IN,1702880854
504,bubaque,11.2833,-15.8333,26.93,45,100,7.4,GW,1702880855
505,banchory,57.0517,-2.4882,10.75,97,40,1.86,GB,1702880855
506,quincy,42.2529,-71.0023,15.77,95,100,5.14,US,1702880739
507,khash,28.2211,61.2158,12.37,19,0,1.18,IR,1702880855
508,coquimbo,-29.9533,-71.3436,14.85,88,0,1.54,CL,1702880596
509,leirvik,59.7798,5.5005,7.7,97,76,1.36,NO,1702880855
510,sinjai,-5.1241,120.253,29.79,71,95,2.34,ID,1702880855
511,olonets,60.9847,32.9698,-1.68,91,29,4.15,RU,1702880855
512,geraldton,-28.7667,114.6,30.23,39,28,9.77,AU,1702880855
513,oranjemund,-28.55,16.4333,16.99,77,15,4.37,NA,1702880727
514,de aar,-30.6497,24.0123,22.88,38,0,3.09,ZA,1702880855
515,xinyuan,37.3,99.0,-8.75,35,11,7.32,CN,1702880855
516,talakan,50.3167,130.3667,-24.28,83,91,3.0,RU,1702880855
517,xai-xai,-25.0519,33.6442,28.03,70,86,2.73,MZ,1702880855
518,nova vicosa,-17.8919,-39.3719,23.66,89,61,2.23,BR,1702880855
519,kristiansund,63.1115,7.732,7.36,76,75,8.23,NO,1702880856
520,bangassou,4.7413,22.8184,24.08,48,73,0.78,CF,1702880856
521,okeho,8.0333,3.35,21.57,24,14,1.58,NG,1702880856
522,ottawa,45.4112,-75.6981,9.16,97,100,2.57,CA,1702880364
523,east london,-33.0153,27.9116,20.52,77,75,4.63,ZA,1702880744
524,beau vallon,-20.4189,57.6953,29.13,79,75,6.69,MU,1702880856
525,iranshahr,27.2025,60.6848,19.19,24,0,3.09,IR,1702880856
526,rio preto da eva,-2.6994,-59.6997,23.35,95,66,0.94,BR,1702880698
527,villa elisa,-25.3667,-57.6167,29.77,66,0,1.54,PY,1702880856
528,bairnsdale,-37.8333,147.6167,23.48,52,99,3.87,AU,1702880856
529,batticaloa,7.7102,81.6924,26.49,86,95,5.51,LK,1702880856
530,tralee,52.2704,-9.7026,11.73,97,100,2.43,IE,1702880732
531,nazarovo,56.0064,90.3914,-26.32,95,45,1.5,RU,1702880856
532,troitsko-pechorsk,62.7084,56.1964,-14.19,94,100,4.22,RU,1702880856
533,parabel',58.6978,81.4825,-22.83,96,64,4.47,RU,1702880856
534,shingu,33.7333,135.9833,9.42,41,81,0.47,JP,1702880856
535,kinkala,-4.3614,14.7644,22.49,95,100,1.25,CG,1702880857
536,kurumkan,54.3,110.3,-23.82,92,69,0.45,RU,1702880658
537,youssoufia,32.2463,-8.5294,9.23,56,0,1.26,MA,1702880857
538,ulladulla,-35.35,150.4667,33.2,72,41,5.97,AU,1702880857
539,heber springs,35.4915,-92.0313,6.18,82,0,2.4,US,1702880857
540,ishimbay,53.4545,56.0415,-9.29,93,96,6.95,RU,1702880857
541,timimoun,29.2639,0.231,3.21,75,0,2.57,DZ,1702880857
542,waingapu,-9.6567,120.2641,31.04,55,74,3.85,ID,1702880857
543,sola,-13.8833,167.55,27.22,79,50,6.05,VU,1702880857
544,santo angelo,-28.2992,-54.2631,24.54,79,22,2.58,BR,1702880857
545,airuk,7.2772,168.8203,27.54,82,92,10.97,MH,1702880857
546,terme,41.2092,36.9739,2.96,67,14,2.48,TR,1702880857
547,kikwit,-5.041,18.8162,22.87,95,100,0.51,CD,1702880857
548,karratha,-20.7377,116.8463,30.23,45,0,10.17,AU,1702880501
549,cobija,-11.0267,-68.7692,21.98,94,96,1.39,BO,1702880858
550,villa dolores,-31.9459,-65.1896,22.6,81,43,2.41,AR,1702880858
551,lazaro cardenas,17.9583,-102.2,24.52,87,4,1.87,MX,1702880728
552,chekmagush,55.1319,54.6556,-7.79,92,100,7.74,RU,1702880858
553,devils lake,48.1128,-98.8651,-8.01,75,0,9.26,US,1702880858
554,mindelo,16.8901,-24.9804,22.75,68,20,5.14,CV,1702880858
555,mata-utu,-13.2816,-176.1745,28.18,72,79,1.56,WF,1702880754
556,bunumbu,8.1667,-10.8667,18.21,57,99,1.14,SL,1702880858
557,popondetta,-8.7537,148.2534,29.01,77,100,2.21,PG,1702880858
558,mabaruma,8.2,-59.7833,22.61,95,76,0.7,GY,1702880858
559,ancud,-41.8697,-73.8203,6.13,85,15,2.97,CL,1702880739
560,mugia,43.1041,-9.2179,9.53,68,0,1.73,ES,1702880858
561,erenhot,43.6475,111.9767,-16.06,83,73,7.46,CN,1702880858
562,peshkopi,41.685,20.4289,4.47,59,0,3.15,AL,1702880742
563,nanyang,32.9947,112.5328,2.62,39,96,1.37,CN,1702880858
564,chul'man,56.8479,124.9104,-31.82,94,100,2.05,RU,1702880858
565,binzhou,37.3667,118.0167,-3.27,65,100,1.69,CN,1702880858
566,gassol,8.5333,10.4667,21.46,26,3,2.44,NG,1702880858
567,ola,59.5833,151.2833,-20.2,80,98,6.95,RU,1702880747
568,lamu,-2.2717,40.902,30.12,72,84,4.23,KE,1702880858
569,dili,-8.5586,125.5736,29.96,69,100,5.65,TL,1702880859
570,altai,46.3722,96.2583,-26.02,86,62,2.65,MN,1702880859
571,fort st. john,56.2499,-120.8529,1.94,64,40,6.69,CA,1702880764
572,lincoln,40.8,-96.667,2.95,77,0,5.14,US,1702880288
573,bhattarai danda,27.8828,83.9314,22.82,40,25,1.58,NP,1702880859
574,ad dilam,23.9915,47.1627,18.23,52,88,2.42,SA,1702880859
575,songjianghe,42.1859,127.479,-14.95,67,22,2.48,CN,1702880859
576,olyokminsk,60.3736,120.4264,-29.77,98,100,1.35,RU,1702880859
577,heliopolis,36.5036,7.4428,9.22,96,100,0.55,DZ,1702880859
578,aden,12.7794,45.0367,25.48,52,40,6.71,YE,1702880760
579,rafsanjan,30.4067,55.9939,15.2,12,27,1.22,IR,1702880859
580,opuwo,-18.0607,13.84,25.26,27,99,2.41,NA,1702880752
581,sakakah,29.9697,40.2064,12.76,38,100,2.73,SA,1702880859
582,cadale,2.7603,46.3222,27.43,63,94,11.03,SO,1702880859
583,djamaa,33.5339,5.9931,11.22,60,100,4.25,DZ,1702880860
584,kill devil hills,36.0307,-75.676,20.55,94,100,9.26,US,1702880751
585,raduzhny,62.0961,77.475,-13.97,74,100,8.9,RU,1702880860
586,cox's bazar,21.4532,91.9798,24.38,50,7,2.81,BD,1702880670
587,vikulovo,56.8167,70.6107,-10.82,94,100,6.26,RU,1702880734
588,velikiye luki,56.34,30.5452,1.63,100,100,3.56,RU,1702880860
589,port saint john's,-31.6229,29.5448,22.01,84,100,6.28,ZA,1702880741
590,koulikoro,14.0,-7.75,14.82,24,100,3.87,ML,1702880860
591,mozarlandia,-14.7447,-50.5706,25.21,38,40,1.22,BR,1702880860
592,ponferrada,42.5466,-6.5962,5.43,45,0,0.74,ES,1702880815
593,howard springs,-12.497,131.047,33.26,71,90,4.13,AU,1702880726
594,araguari,-18.6472,-48.1872,24.16,48,74,1.11,BR,1702880860
595,plastun,44.7561,136.2939,-16.68,53,1,5.73,RU,1702880671
