City_ID,City,Lat,Lng,Max Temp,Humidity,Cloudiness,Wind Speed,Country,Date
0,waitangi,-43.9535,-176.5597,14.54,91,37,4.99,NZ,1703029925
1,nagar karnul,16.4821,78.3247,16.98,83,59,3.32,IN,1703029944
2,adamstown,-25.066,-130.1015,23.03,77,96,7.4,PN,1703029929
3,lucapa,-8.4192,20.7447,19.44,91,100,1.1,AO,1703029945
4,jabor,5.921,169.6434,27.87,81,100,10.38,MH,1703029945
5,manokwari,-0.8667,134.0833,27.97,73,99,1.92,ID,1703029945
6,bubaque,11.2833,-15.8333,26.85,50,71,6.86,GW,1703029945
7,papatowai,-46.5619,169.4708,23.74,55,100,1.75,NZ,1703029943
8,kiruna,67.8557,20.2251,-4.49,93,100,2.57,SE,1703029945
9,bethel,41.3712,-73.414,3.17,61,100,3.09,US,1703029946
10,alaghsas,17.0187,8.0168,19.5,17,69,3.77,NE,1703029946
11,kasama,-10.2129,31.1808,17.65,95,93,1.1,ZM,1703029946
12,djamaa,33.5339,5.9931,13.69,60,77,5.51,DZ,1703029946
13,bredasdorp,-34.5322,20.0403,15.65,86,7,0.68,ZA,1703029923
14,stawell,-37.05,142.7667,16.72,38,0,8.18,AU,1703029947
15,port-aux-francais,-49.35,70.2167,4.55,81,49,14.91,TF,1703029922
16,albany,42.6001,-73.9662,-0.79,76,67,4.81,US,1703029926
17,puerto lempira,15.2667,-83.7667,24.08,94,75,9.26,HN,1703029947
18,brits,-25.6347,27.7802,20.16,67,58,6.63,ZA,1703029947
19,namibe,-15.1961,12.1522,22.71,77,89,3.32,AO,1703029947
20,kudahuvadhoo,2.6708,72.8944,27.98,78,52,3.02,MV,1703029948
21,vilyuchinsk,52.9306,158.4028,-13.85,82,100,3.29,RU,1703029924
22,puerto ayora,-0.7393,-90.3518,25.31,94,95,2.24,EC,1703029925
23,spring creek,40.7266,-115.5859,5.83,56,100,2.08,US,1703029764
24,jamestown,42.097,-79.2353,-0.23,93,100,2.06,US,1703029717
25,invercargill,-46.4,168.35,25.92,51,100,1.88,NZ,1703029668
26,edinburgh of the seven seas,-37.0676,-12.3116,16.54,92,80,8.13,SH,1703029925
27,longyearbyen,78.2186,15.6401,-7.09,63,0,9.77,SJ,1703029949
28,kavalerovo,44.2661,135.0572,-20.25,78,10,4.02,RU,1703029949
29,chernyshevskiy,63.0128,112.4714,-35.38,100,36,1.36,RU,1703029949
30,kodiak,57.79,-152.4072,0.73,86,0,5.66,US,1703029726
31,cockburn town,21.4612,-71.1419,25.26,82,98,9.96,TC,1703029949
32,chibougamau,49.9168,-74.3659,-11.21,85,100,3.6,CA,1703029950
33,iqaluit,63.7506,-68.5145,-21.15,65,40,6.17,CA,1703029927
34,nova sintra,14.8667,-24.7167,20.65,72,100,10.08,CV,1703029950
35,cedeira,43.6797,-8.0209,12.76,65,100,10.01,ES,1703029950
36,zuunmod,47.7069,106.9528,-36.43,100,55,1.29,MN,1703029951
37,mar''ina horka,53.509,28.147,4.12,97,100,4.62,BY,1703029951
38,tazovsky,67.4667,78.7,-12.95,93,100,8.51,RU,1703029928
39,puerto natales,-51.7236,-72.4875,14.87,83,87,1.73,CL,1703029789
40,high rock,26.6208,-78.2833,20.01,62,0,10.03,BS,1703029952
41,qaisumah,28.3112,46.1273,10.98,46,0,0.0,SA,1703029952
42,malango,-2.9627,119.9001,23.87,96,100,0.27,ID,1703029926
43,kokopo,-4.352,152.2633,27.89,75,95,2.54,PG,1703029952
44,fort bragg,35.139,-79.006,5.75,55,0,2.06,US,1703029952
45,wailua homesteads,22.0669,-159.378,26.24,78,100,8.23,US,1703029952
46,kuraymah,18.55,31.85,20.19,40,0,5.29,SD,1703029953
47,port lincoln,-34.7333,135.8667,16.85,53,0,7.91,AU,1703029953
48,san andres,12.5847,-81.7006,28.01,61,20,6.69,CO,1703029953
49,kismayo,-0.3582,42.5454,27.67,76,100,4.93,SO,1703029953
50,avarua,-21.2078,-159.775,27.03,65,75,4.12,CK,1703029954
51,lebu,-37.6167,-73.65,13.77,86,33,2.65,CL,1703029954
52,loen,7.7601,168.2307,27.76,76,100,10.53,MH,1703029954
53,petropavlovsk-kamchatsky,53.0452,158.6483,-14.67,61,0,4.0,RU,1703029954
54,whitehorse,60.7161,-135.0538,-11.22,85,75,7.72,CA,1703029954
55,mendi,-6.1761,143.6513,16.29,91,100,0.68,PG,1703029955
56,grytviken,-54.2811,-36.5092,4.05,94,100,6.87,GS,1703029927
57,margaret river,-33.95,115.0667,18.66,56,92,5.64,AU,1703029955
58,west island,-12.1568,96.8225,25.99,78,40,4.63,CC,1703029955
59,anacapri,40.5558,14.2136,10.29,84,0,0.73,IT,1703029955
60,olonkinbyen,70.9221,-8.7187,-5.04,65,100,7.69,SJ,1703029955
61,ceeldheer,3.8488,47.1806,25.23,79,100,7.43,SO,1703029955
62,placer,39.0666,-120.7677,10.29,89,99,2.68,US,1703029956
63,arraial do cabo,-22.9661,-42.0278,23.98,83,20,2.57,BR,1703029956
64,gaiman,-43.2897,-65.4929,17.91,35,35,9.83,AR,1703029956
65,villa regina,-39.1,-67.0667,17.77,20,100,3.13,AR,1703029956
66,vila velha,-20.3297,-40.2925,24.97,83,20,2.57,BR,1703029956
67,vorgashor,67.5833,63.95,-14.94,92,100,5.82,RU,1703029957
68,kizilcahamam,40.4697,32.6506,-2.21,81,5,0.89,TR,1703029957
69,prince rupert,54.3161,-130.3201,6.05,100,100,4.63,CA,1703029957
70,stanley,54.868,-1.6985,6.4,84,75,9.26,GB,1703029859
71,constantia,44.1833,28.65,2.61,73,0,4.14,RO,1703029958
72,afaahiti,-17.75,-149.2833,25.93,82,100,4.53,PF,1703029958
73,utrik,11.2278,169.8474,27.02,76,92,10.4,MH,1703029958
74,guerrero negro,27.9769,-114.0611,19.75,69,86,4.69,MX,1703029925
75,punta arenas,-53.15,-70.9167,15.06,63,75,5.66,CL,1703029863
76,blackmans bay,-43.0167,147.3167,16.4,64,18,0.45,AU,1703029923
77,swakopmund,-22.6833,14.5333,16.47,83,3,0.89,NA,1703029959
78,laojunmiao,39.8333,97.7333,-11.47,54,13,2.26,CN,1703029959
79,georgetown,5.4112,100.3354,25.96,89,20,1.03,MY,1703029684
80,kilindoni,-7.9139,39.6668,28.16,77,100,5.97,TZ,1703029959
81,tura,25.5198,90.2201,12.05,88,33,2.42,IN,1703029960
82,wanxian,30.8039,108.3897,5.65,83,37,0.45,CN,1703029960
83,hawaiian paradise park,19.5933,-154.9731,22.16,95,100,2.57,US,1703029960
84,ushuaia,-54.8,-68.3,13.81,67,75,6.69,AR,1703029806
85,hamilton,39.1834,-84.5333,0.99,66,0,2.06,US,1703029707
86,eydhafushi,5.1033,73.0708,28.2,79,47,7.17,MV,1703029960
87,bazarnyye mataki,54.8833,49.9333,0.59,98,100,9.89,RU,1703029960
88,morehead city,34.7229,-76.726,6.1,65,0,5.14,US,1703029772
89,gadzhiyevo,69.2551,33.3362,-10.89,93,100,0.49,RU,1703029961
90,tomatlan,19.9333,-105.25,25.43,72,9,1.95,MX,1703029961
91,freetown,8.484,-13.2299,26.84,78,27,2.57,SL,1703029961
92,paradip garh,20.3167,86.6167,14.25,45,59,2.88,IN,1703029961
93,salaqi,40.5414,110.5108,-23.8,93,7,2.99,CN,1703029961
94,kiskunhalas,46.434,19.4848,3.9,73,0,2.48,HU,1703029962
95,penzance,50.1186,-5.5371,9.38,73,14,11.49,GB,1703029962
96,cabedelo,-6.9811,-34.8339,26.37,84,98,4.75,BR,1703029962
97,port mathurin,-19.6833,63.4167,25.69,85,100,8.03,MU,1703029962
98,kremenets,50.0969,25.7246,4.41,66,93,6.55,UA,1703029962
99,saint-leu,-21.15,55.2833,25.48,93,96,2.64,RE,1703029963
100,aktyubinskiy,54.8137,52.8056,-2.5,95,100,11.1,RU,1703029963
101,lhasa,29.65,91.1,-2.97,40,0,1.62,CN,1703029963
102,chinde,26.8418,88.0763,9.24,76,54,2.61,NP,1703029963
103,al qubbah,32.7616,22.2424,8.76,82,58,4.32,LY,1703029963
104,port alfred,-33.5906,26.891,18.43,98,20,0.45,ZA,1703029963
105,lompoc,34.6391,-120.4579,18.23,90,100,4.12,US,1703029964
106,udachny,66.4167,112.4,-24.43,86,97,2.0,RU,1703029964
107,jwaneng,-24.6004,24.7303,23.31,62,56,2.35,BW,1703029964
108,keflavik,64.0049,-22.5624,1.24,80,100,6.17,IS,1703029922
109,sandnessjoen,66.0217,12.6316,3.06,56,40,3.09,NO,1703029965
110,al jawf,29.5,38.75,9.48,63,0,3.56,SA,1703029965
111,mityana,0.4175,32.0228,17.92,85,100,0.8,UG,1703029965
112,kattivakkam,13.2167,80.3167,25.05,66,93,5.43,IN,1703029966
113,san patricio,28.017,-97.5169,20.92,70,100,3.56,US,1703029966
114,bom jesus,-9.0744,-44.3586,23.28,86,91,2.13,BR,1703029966
115,nar'yan-mar,67.6713,53.087,-13.18,97,84,4.62,RU,1703029967
116,bengkulu,-3.8004,102.2655,24.02,88,88,1.3,ID,1703029967
117,mayqayyng,51.4625,75.7986,-5.57,86,100,5.3,KZ,1703029967
118,berezovyy,51.6667,135.7,-22.86,93,100,0.59,RU,1703029968
119,kruisfontein,-34.0033,24.7314,16.6,95,12,1.55,ZA,1703029968
120,san pedro,14.35,121.0167,27.42,84,75,3.13,PH,1703029968
121,katsuura,35.1333,140.3,11.2,66,97,4.14,JP,1703029968
122,susuman,62.7833,148.1667,-35.01,99,97,2.24,RU,1703029969
123,talnakh,69.4865,88.3972,-12.66,66,100,12.73,RU,1703029969
124,aldinga beach,-35.2793,138.4604,18.48,51,1,7.82,AU,1703029969
125,isafjordur,66.0755,-23.124,-6.71,73,100,3.91,IS,1703029970
126,nuku'alofa,-21.1333,-175.2,29.19,74,20,8.23,TO,1703029970
127,el porvenir,13.7617,-87.3458,21.63,65,14,3.64,HN,1703029970
128,hadibu,12.65,54.0333,24.44,81,12,5.75,YE,1703029970
129,georgiyevka,43.0369,74.7114,-0.98,100,100,1.0,KZ,1703029970
130,pisco,-13.7,-76.2167,22.03,83,0,8.75,PE,1703029971
131,copiapo,-27.3667,-70.3333,15.83,54,0,1.99,CL,1703029971
132,kununurra,-15.7667,128.7333,32.99,70,72,4.12,AU,1703029911
133,zhangjiakou shi xuanhua qu,40.6103,115.0447,-19.28,73,13,4.21,CN,1703029972
134,kapa'a,22.0752,-159.319,26.99,77,100,8.23,US,1703029972
135,pathein,16.7833,94.7333,19.89,75,46,2.28,MM,1703029972
136,macouria,4.9167,-52.3667,27.97,78,100,1.54,GF,1703029972
137,klyuchi,52.2667,79.1667,-8.27,92,100,3.8,RU,1703029972
138,lazaro cardenas,17.9583,-102.2,26.26,80,5,2.18,MX,1703029928
139,fale old settlement,-9.3852,-171.2468,29.14,75,64,3.21,TK,1703029973
140,banjar,-8.19,114.9675,26.81,67,11,3.35,ID,1703029973
141,qaqortoq,60.7167,-46.0333,2.75,100,100,4.41,GL,1703029974
142,enewetak,11.3474,162.3373,27.07,77,100,10.58,MH,1703029974
143,nevada,39.2502,-116.7512,4.5,62,100,3.21,US,1703029974
144,ust-nera,64.5667,143.2,-37.69,100,99,1.98,RU,1703029975
145,kenai,60.5544,-151.2583,-3.25,99,75,1.54,US,1703029975
146,dudinka,69.4058,86.1778,-12.43,76,100,13.41,RU,1703029975
147,nova vicosa,-17.8919,-39.3719,22.8,90,87,4.4,BR,1703029976
148,chonchi,-42.6128,-73.8092,22.56,80,1,0.18,CL,1703029923
149,scarborough,54.2797,-0.4044,7.59,83,84,3.13,GB,1703029301
150,sohbatpur,28.5202,68.5434,13.1,35,0,1.61,PK,1703029976
151,sitka,57.0531,-135.33,2.94,65,20,0.0,US,1703029977
152,severo-yeniseyskiy,60.3725,93.0408,-31.35,95,12,2.24,RU,1703029977
153,codrington,-38.2667,141.9667,14.85,54,70,7.21,AU,1703029977
154,la passe,45.5549,-0.8967,10.55,93,100,7.52,FR,1703029977
155,ribeira grande,38.5167,-28.7,16.54,81,100,5.81,PT,1703029926
156,port elizabeth,-33.918,25.5701,20.16,95,100,5.66,ZA,1703029977
157,anadyr,64.75,177.4833,-25.56,83,20,5.0,RU,1703029977
158,rongelap,11.1635,166.8941,27.21,77,85,9.64,MH,1703029978
159,alofi,-19.0595,-169.9187,29.94,70,75,8.23,NU,1703029978
160,dalandzadgad,43.5708,104.425,-23.39,88,8,6.35,MN,1703029978
161,kyren,51.6828,102.1408,-25.03,93,12,0.45,RU,1703029978
162,tan-tan,28.438,-11.1032,14.06,86,0,3.01,MA,1703029978
163,monte patria,-30.6919,-70.9467,21.98,39,0,2.6,CL,1703029978
164,cabo san lucas,22.8909,-109.9124,28.17,55,0,4.63,MX,1703029248
165,kill devil hills,36.0307,-75.676,6.1,53,0,2.57,US,1703029979
166,ciudad bolivar,8.1222,-63.5497,31.25,49,91,3.24,VE,1703029979
167,ashburton,-37.8626,145.0794,19.4,46,38,1.79,AU,1703029933
168,bilibino,68.0546,166.4372,-36.73,100,100,0.32,RU,1703029979
169,iskateley,67.6803,53.1512,-13.18,97,84,4.58,RU,1703029979
170,east london,-33.0153,27.9116,20.24,86,35,5.8,ZA,1703029980
171,verkhnevilyuysk,63.4453,120.3167,-24.36,93,97,3.01,RU,1703029980
172,al bawiti,28.3492,28.8659,13.75,68,99,3.32,EG,1703029980
173,brisas de zicatela,15.8369,-97.0419,23.76,73,0,1.22,MX,1703029980
174,i-n-salah,27.1935,2.4607,9.83,60,5,2.68,DZ,1703029980
175,sinjai,-5.1241,120.253,27.11,75,89,1.0,ID,1703029980
176,hithadhoo,-0.6,73.0833,27.9,77,72,2.82,MV,1703029923
177,mount isa,-20.7333,139.5,32.87,43,12,3.09,AU,1703029981
178,megion,61.0296,76.1136,-10.99,96,99,3.34,RU,1703029981
179,glubokoye,50.1456,82.3114,-6.14,53,100,6.0,KZ,1703029981
180,rumbek,6.802,29.6912,26.71,32,54,1.86,SS,1703029981
181,flying fish cove,-10.4217,105.6791,23.82,88,8,0.0,CX,1703029926
182,happy valley-goose bay,53.3168,-60.3315,7.17,81,100,4.63,CA,1703029981
183,dakhla,23.6848,-15.958,16.9,42,7,6.57,EH,1703029982
184,zanjan,36.6736,48.4787,1.06,79,34,1.48,IR,1703029982
185,mananara,-16.1667,49.7667,23.99,93,25,1.45,MG,1703029982
186,tiksi,71.6872,128.8694,-16.77,81,100,6.99,RU,1703029982
187,plastun,44.7561,136.2939,-19.52,62,1,5.61,RU,1703029982
188,okondja,-0.6549,13.6753,23.34,94,96,1.09,GA,1703029983
189,antigonish,45.6169,-61.9986,12.86,96,100,3.58,CA,1703029983
190,haiku-pauwela,20.9219,-156.3051,25.01,76,40,10.29,US,1703029983
191,cooper's town,26.8667,-77.5167,20.76,61,0,10.11,BS,1703029984
192,colchani,-20.3,-66.9333,15.28,14,14,6.79,BO,1703029984
193,ilulissat,69.2167,-51.1,-14.99,56,20,3.6,GL,1703029984
194,mingshui,36.7167,117.5,-18.29,87,10,1.63,CN,1703029984
195,akureyri,65.6835,-18.0878,-4.04,58,0,5.14,IS,1703029752
196,zaozersk,69.4005,32.4476,-9.28,95,100,2.2,RU,1703029985
197,lihue,21.9789,-159.3672,26.58,77,100,8.23,US,1703029985
198,el granada,37.5027,-122.4694,17.94,82,0,7.2,US,1703029985
199,belle fourche,44.6714,-103.8522,10.8,26,47,2.37,US,1703029809
200,saipan,15.1355,145.701,28.39,78,20,8.23,MP,1703029986
201,tupiza,-21.45,-65.7167,16.68,67,57,2.89,BO,1703029986
202,boende,-0.2167,20.8667,22.56,95,100,1.16,CD,1703029986
203,port hedland,-20.3167,118.5667,28.03,65,4,6.69,AU,1703029986
204,karratha,-20.7377,116.8463,25.97,61,3,5.61,AU,1703029986
205,kingston,17.997,-76.7936,26.53,70,75,7.2,JM,1703029638
206,badger,64.8,-147.5333,-14.45,85,75,3.6,US,1703029987
207,nuevo imperial,-13.0754,-76.3172,20.55,86,81,2.24,PE,1703029987
208,carnarvon,-24.8667,113.6333,23.6,77,9,2.22,AU,1703029987
209,juneau,58.3019,-134.4197,-1.99,95,100,0.0,US,1703029988
210,beloretsk,53.9631,58.3981,-14.69,100,100,1.77,RU,1703029988
211,whakatane,-37.9585,176.9854,24.38,79,13,1.79,NZ,1703029988
212,yerofey pavlovich,53.9667,121.9667,-25.4,87,96,1.58,RU,1703029988
213,kondopoga,62.2057,34.2614,0.96,89,95,6.7,RU,1703029988
214,coquimbo,-29.9533,-71.3436,16.85,67,0,5.66,CL,1703029396
215,walvis bay,-22.9575,14.5053,16.53,82,0,4.12,NA,1703029989
216,weno,7.4515,151.8468,28.97,74,75,3.6,FM,1703029989
217,saudarkrokur,65.7461,-19.6394,-7.13,82,83,4.78,IS,1703029989
218,thompson,55.7435,-97.8558,-20.91,77,20,2.57,CA,1703029927
219,ola,59.5833,151.2833,-25.15,89,32,4.61,RU,1703029989
220,bel ombre,-4.6167,55.4167,25.91,89,40,2.06,SC,1703029990
221,east ballina,-28.8667,153.5833,27.69,58,69,4.73,AU,1703029990
222,ciudad lazaro cardenas,17.9583,-102.2,26.51,78,4,2.24,MX,1703029990
223,college,64.8569,-147.8028,-14.4,83,75,3.6,US,1703029929
224,fortuna,40.5982,-124.1573,15.37,86,100,7.2,US,1703029990
225,berezovo,63.9381,65.0419,-18.43,99,87,2.95,RU,1703029990
226,acapulco de juarez,16.8634,-99.8901,28.9,65,40,2.57,MX,1703029768
227,la gi,10.6667,107.7833,25.55,77,97,1.77,VN,1703029991
228,al fuwayliq,26.4432,43.2534,11.63,40,0,3.72,SA,1703029991
229,trairi,-3.2778,-39.2689,26.45,83,98,3.12,BR,1703029991
230,shahjanpur,27.8833,79.9167,10.86,44,68,1.71,IN,1703029991
231,pizarro,4.9533,-77.366,25.99,90,100,1.59,CO,1703029992
232,nemuro,43.3236,145.575,-3.77,81,95,2.59,JP,1703029992
233,ceres,37.5949,-120.9577,18.87,88,75,5.66,US,1703029992
234,kailua-kona,19.6406,-155.9956,25.98,77,100,4.63,US,1703029924
235,smithers,54.7804,-127.1743,-0.82,100,100,0.0,CA,1703029992
236,urengoy,65.9667,78.3667,-12.54,93,100,7.8,RU,1703029992
237,quellon,-43.1167,-73.6167,15.03,74,10,0.67,CL,1703029922
238,pemangkat,1.1667,108.9667,26.44,84,86,1.52,ID,1703029995
239,laguna,38.421,-121.4238,18.36,78,75,6.69,US,1703029995
240,saint-philippe,-21.3585,55.7679,25.77,83,100,1.53,RE,1703029995
241,howrah,22.5892,88.3103,15.0,77,34,2.06,IN,1703029995
242,naryn,41.4287,75.9911,-11.23,71,68,2.96,KG,1703029995
243,vijapur,23.5667,72.75,15.9,33,100,3.41,IN,1703029996
244,filipstad,59.7124,14.1683,-2.09,99,35,1.57,SE,1703029996
245,baxter,46.3433,-94.2867,0.16,70,0,2.06,US,1703029996
246,opuwo,-18.0607,13.84,24.65,37,55,1.04,NA,1703029996
247,hermanus,-34.4187,19.2345,14.33,84,1,2.81,ZA,1703029928
248,tateyama,34.9833,139.8667,8.94,64,95,3.67,JP,1703029997
249,crane,31.3974,-102.3501,14.38,48,94,9.86,US,1703029997
250,orebro,59.2741,15.2066,1.54,100,0,3.6,SE,1703029997
251,indiantown,27.0273,-80.4856,16.08,80,1,5.76,US,1703029997
252,gebeit,21.0667,36.3167,18.44,88,18,2.25,SD,1703029997
253,lamu,-2.2717,40.902,26.12,88,65,3.75,KE,1703029997
254,ulladulla,-35.35,150.4667,15.43,98,100,2.65,AU,1703029888
255,tottori,35.5,134.2333,7.04,70,75,3.6,JP,1703029756
256,goksun,38.021,36.4973,1.8,74,8,1.92,TR,1703029998
257,fujin,47.26,132.0322,-27.68,98,31,2.97,CN,1703029998
258,castillos,-34.1667,-53.8333,17.53,72,95,4.24,UY,1703029998
259,puerto yuca,2.9383,-73.2083,24.62,91,63,1.52,CO,1703029998
260,armyansk,46.1092,33.6921,6.5,95,55,4.42,UA,1703029999
261,beyneu,45.3167,55.2,2.44,99,100,3.3,KZ,1703029999
262,san juan de miraflores,-12.1629,-76.9635,22.29,87,86,4.61,PE,1703029999
263,yellowknife,62.456,-114.3525,-22.47,83,76,4.47,CA,1703029844
264,island harbour,50.724,-1.2758,6.75,91,20,2.68,GB,1703029999
265,warrenton,-28.114,24.8475,24.75,13,24,2.29,ZA,1703030000
266,timbiqui,2.7717,-77.6654,24.82,94,93,1.85,CO,1703030000
267,vallenar,-28.5708,-70.7581,18.66,45,0,2.16,CL,1703030000
268,novo cruzeiro,-17.4681,-41.8753,18.02,99,92,0.56,BR,1703030000
269,healesville,-37.65,145.5167,19.18,36,13,3.41,AU,1703029849
270,baiyin,36.5583,104.2081,-10.9,60,1,0.89,CN,1703030000
271,lautoka,-17.6167,177.4667,28.92,74,75,3.6,FJ,1703030001
272,guarapari,-20.6667,-40.4975,24.02,86,34,2.35,BR,1703030001
273,atafu village,-8.5421,-172.5159,29.22,73,79,4.47,TK,1703030001
274,hilo,19.7297,-155.09,24.03,94,100,2.57,US,1703029767
275,mkushi,-13.6202,29.3939,19.68,90,99,1.26,ZM,1703030001
276,luderitz,-26.6481,15.1594,16.86,70,1,6.82,NA,1703030002
277,lijiang,26.8688,100.2207,-0.31,46,13,1.67,CN,1703030002
278,yuncheng,35.0231,110.9928,-6.92,58,87,2.42,CN,1703030002
279,lidkoping,58.5052,13.1577,3.01,92,68,6.84,SE,1703030002
280,fort st. john,56.2499,-120.8529,-6.06,93,100,3.6,CA,1703030002
281,buka,40.8108,69.1986,1.19,92,18,1.74,UZ,1703030002
282,vinton,37.281,-79.897,1.0,62,3,1.79,US,1703030003
283,ancud,-41.8697,-73.8203,14.64,74,2,0.88,CL,1703030003
284,bereket,39.2446,55.5154,2.94,76,0,4.32,TM,1703030003
285,hasaki,35.7333,140.8333,6.27,64,100,3.42,JP,1703030003
286,chinchilla,-26.75,150.6333,26.17,54,96,5.22,AU,1703030003
287,sinop,41.7711,34.8709,4.71,75,29,3.55,TR,1703030004
288,pointe michel,15.25,-61.3833,25.63,67,30,4.07,DM,1703030004
289,vadso,70.0744,29.7487,-4.91,86,100,5.14,NO,1703030004
290,palkonda,18.6,83.75,16.0,76,32,1.71,IN,1703030004
291,chos malal,-37.3781,-70.2709,12.84,74,93,2.37,AR,1703030005
292,pompeu,-19.2244,-44.9353,21.16,78,86,2.18,BR,1703029967
293,isangel,-19.55,169.2667,28.06,83,75,2.06,VU,1703030006
294,alice springs,-23.7,133.8833,25.75,21,0,5.66,AU,1703030007
295,tisul',55.7611,88.3122,-12.3,82,98,2.3,RU,1703030007
296,hitoyoshi,32.2167,130.75,6.9,90,100,2.78,JP,1703030007
297,huilong,31.8111,121.655,1.36,68,57,7.4,CN,1703030007
298,kirensk,57.7853,108.1119,-38.91,100,47,1.34,RU,1703030007
299,yarmouth,41.7057,-70.2286,7.0,78,0,2.06,US,1703030008
300,es castell,39.8795,4.2854,10.38,100,0,3.09,ES,1703030008
301,quelimane,-17.8786,36.8883,26.97,83,75,4.12,MZ,1703030008
302,egilsstadir,65.2653,-14.3948,-6.05,63,0,3.09,IS,1703030008
303,ivanava,52.1451,25.5365,4.49,84,100,6.59,BY,1703030008
304,mount gambier,-37.8333,140.7667,16.07,45,3,5.76,AU,1703030009
305,meadow lakes,61.6247,-149.6011,-2.11,83,100,1.54,US,1703030009
306,nizhneangarsk,55.7833,109.55,-23.89,85,46,3.13,RU,1703030009
307,mekhe,15.1097,-16.6218,19.28,15,100,5.43,SN,1703030009
308,chimala,-8.85,34.0167,20.74,67,96,0.91,TZ,1703030009
309,kaohsiung,22.6163,120.3133,16.97,88,75,3.6,TW,1703030009
310,puerto el triunfo,13.2833,-88.55,32.51,52,36,0.43,SV,1703030010
311,remire-montjoly,4.9167,-52.2667,28.02,78,100,1.54,GF,1703030010
312,la ronge,55.1001,-105.2842,-13.86,66,40,3.6,CA,1703030010
313,tilcara,-23.5776,-65.3509,9.77,87,80,1.64,AR,1703030011
314,saalfeld,50.65,11.3667,4.69,96,100,4.43,DE,1703030011
315,lemvig,56.5486,8.3102,6.19,89,44,9.93,DK,1703030011
316,kemijarvi,66.7131,27.4306,-4.37,95,100,5.29,FI,1703030011
317,antsiranana,-12.2787,49.2917,25.78,84,80,0.52,MG,1703030011
318,cozumel,20.5083,-86.9458,23.86,78,90,3.58,MX,1703029904
319,urangan,-25.3,152.9,25.71,73,6,3.7,AU,1703030012
320,vilyuysk,63.7553,121.6247,-22.78,93,98,2.24,RU,1703030012
321,staryy dobrotvir,50.2315,24.377,4.36,69,92,5.43,UA,1703030012
322,devils lake,48.1128,-98.8651,-1.01,79,100,2.57,US,1703030012
323,lerwick,60.1545,-1.1494,6.0,56,72,12.1,GB,1703030012
324,giyani,-23.3025,30.7187,21.43,88,91,2.46,ZA,1703030012
325,sulak,43.2734,47.5146,5.63,80,6,6.28,RU,1703030013
326,st. john's,47.5649,-52.7093,13.15,89,100,9.77,CA,1703029904
327,tralee,52.2704,-9.7026,9.69,89,94,8.88,IE,1703030013
328,riohacha,11.5444,-72.9072,28.06,94,20,4.12,CO,1703030013
329,coahuayana de hidalgo,18.7,-103.6583,26.11,83,21,1.55,MX,1703030013
330,guajara mirim,-10.7828,-65.3394,28.66,61,100,0.8,BR,1703030013
331,hastings,50.8552,0.5729,5.86,84,43,7.74,GB,1703030014
332,taoudenni,22.6783,-3.9836,12.43,43,32,5.01,ML,1703030014
333,roma,43.2128,-75.4557,-2.32,85,100,5.14,US,1703029864
334,cole harbour,44.6724,-63.4751,8.87,97,100,1.18,CA,1703030014
335,port-vila,-17.7338,168.3219,29.78,79,75,3.09,VU,1703030014
336,dara,15.3484,-15.4799,19.98,14,97,5.71,SN,1703030014
337,goundam,16.4145,-3.6708,13.84,20,4,6.24,ML,1703030015
338,nuuk,64.1835,-51.7216,-4.66,93,100,9.77,GL,1703029739
339,vorkuta,67.5,64.0,-16.32,92,99,3.55,RU,1703030015
340,portland,45.5234,-122.6762,13.18,88,75,6.17,US,1703029599
341,bor,56.3567,44.0669,2.96,100,100,7.22,RU,1703030015
342,abepura,-2.6333,140.5833,27.45,78,20,2.06,ID,1703030016
343,isla mujeres,21.2311,-86.731,22.87,55,92,6.02,MX,1703030016
344,grand falls-windsor,48.9332,-55.6649,13.06,92,100,2.68,CA,1703030016
345,tostado,-29.232,-61.7692,19.99,80,100,4.64,AR,1703030016
346,dazhong,33.1997,120.4578,-2.25,57,15,5.8,CN,1703030017
347,talcahuano,-36.7167,-73.1167,15.82,72,100,3.6,CL,1703030017
348,manadhoo,5.7667,73.3833,28.47,78,51,9.49,MV,1703030017
349,praia da vitoria,38.7333,-27.0667,16.53,94,40,3.76,PT,1703029837
350,arenapolis,-14.4503,-56.8461,27.83,55,65,1.21,BR,1703030018
351,antonio enes,-16.2325,39.9086,26.97,84,99,2.82,MZ,1703030018
352,serowe,-22.3833,26.7167,21.85,70,98,5.85,BW,1703030018
353,at taj,24.2049,23.2857,13.14,57,100,3.72,LY,1703030018
354,sumbawa besar,-8.5,117.4333,27.17,63,52,1.59,ID,1703030018
355,ocara,-4.4908,-38.5967,24.83,87,99,1.79,BR,1703030019
356,dawson creek,55.7666,-120.2362,-5.2,86,75,2.06,CA,1703030019
357,sabang,5.8933,95.3214,27.69,76,11,5.91,ID,1703030019
358,aasiaat,68.7098,-52.8699,-20.06,83,77,1.25,GL,1703030019
359,christchurch,-43.5333,172.6333,30.79,46,3,3.6,NZ,1703029674
360,vredendal,-31.6683,18.5012,13.86,94,0,1.53,ZA,1703030019
361,northampton,40.8754,-75.2499,-0.41,69,41,4.51,US,1703029923
362,malabar,-33.9667,151.25,18.35,90,75,12.86,AU,1703030020
363,gamba,-2.65,10.0,25.61,88,100,1.63,GA,1703030020
364,tacuarembo,-31.7333,-55.9833,18.01,80,100,5.67,UY,1703030020
365,mana,5.6592,-53.7767,25.84,92,5,3.77,GF,1703029927
366,san luis de la loma,17.2706,-100.8939,26.06,80,19,1.67,MX,1703030020
367,holualoa,19.6228,-155.9522,23.91,77,100,4.63,US,1703029817
368,brookings,44.3114,-96.7984,2.88,68,0,2.06,US,1703029474
369,sassnitz,54.5167,13.65,5.45,89,100,6.49,DE,1703030021
370,lagoa,39.05,-27.9833,15.99,85,100,9.12,PT,1703030021
371,bartica,6.4,-58.6167,27.18,84,86,1.85,GY,1703030021
372,zouila,35.5006,11.0606,15.99,82,100,7.17,TN,1703030021
373,laibin,23.7,109.2667,6.81,64,100,5.91,CN,1703029895
374,concepcion,-36.827,-73.0498,15.89,72,100,3.6,CL,1703030022
375,prince george,53.9166,-122.753,1.83,95,100,2.57,CA,1703030022
376,marsh harbour,26.5412,-77.0636,20.98,61,1,10.29,BS,1703030022
377,maputo,-25.9653,32.5892,23.44,81,51,3.16,MZ,1703030022
378,summerside,46.3959,-63.7876,7.6,100,100,4.63,CA,1703030022
379,yashkul',46.1711,45.3435,4.52,94,54,4.38,RU,1703030022
380,touros,-5.1989,-35.4608,26.15,85,100,4.14,BR,1703030023
381,solnechnyy,50.7214,136.6319,-24.54,94,100,1.33,RU,1703030023
382,dhari,21.3333,71.0167,17.46,42,100,3.26,IN,1703030023
383,shirochanka,46.6497,38.3978,4.87,95,66,4.02,RU,1703030023
384,dampit,-8.2116,112.7493,23.05,75,32,0.93,ID,1703030023
385,boksitogorsk,59.474,33.8485,0.34,85,57,6.33,RU,1703030023
386,fortaleza,-3.7227,-38.5247,27.9,89,40,4.12,BR,1703030024
387,thunder bay,48.4001,-89.3168,-3.05,59,20,3.6,CA,1703029769
388,antofagasta,-23.65,-70.4,19.6,80,26,2.75,CL,1703029321
389,retreat,38.8245,-85.8533,1.28,70,57,2.74,US,1703030024
390,saldanha,-33.0117,17.9442,15.03,85,0,7.37,ZA,1703030024
391,nadym,65.5333,72.5167,-16.97,97,85,5.26,RU,1703030024
392,cerkno,46.1256,13.9817,7.67,44,0,1.73,SI,1703030024
393,dryden,49.7833,-92.7503,-2.84,63,100,4.12,CA,1703030024
394,concepcion del oro,24.6333,-101.4167,12.41,39,100,2.35,MX,1703030025
395,naze,28.3667,129.4833,13.51,80,100,10.55,JP,1703030025
396,letlhakeng,-24.0944,25.0298,24.28,62,79,2.76,BW,1703030025
397,sergeyevka,53.88,67.4158,-13.56,98,91,3.33,KZ,1703030025
398,minas de marcona,-15.2119,-75.1103,16.97,83,31,6.24,PE,1703030026
399,naracoorte,-36.9579,140.7383,18.05,37,0,5.96,AU,1703030026
400,porrino,42.1616,-8.6198,9.99,100,75,1.03,ES,1703030026
401,polyarnyy,69.1989,33.4478,-10.06,91,100,0.3,RU,1703030026
402,changsha,28.2,112.9667,2.09,74,65,3.21,CN,1703030027
403,montijo,38.7067,-8.9739,12.55,88,0,5.14,PT,1703030027
404,karatas,36.582,35.3701,8.36,52,0,5.38,TR,1703030027
405,ondjiva,-17.0667,15.7333,24.02,83,0,0.0,AO,1703030027
406,kokstad,-30.5472,29.4241,13.81,93,87,1.65,ZA,1703030027
407,bouarfa,32.53,-1.95,2.88,87,2,2.18,MA,1703030028
408,alma,48.5501,-71.6491,-4.94,73,86,3.17,CA,1703030028
409,okhotsk,59.3833,143.3,-27.23,87,98,7.62,RU,1703030028
410,umba,66.6871,34.3429,-2.74,95,100,6.6,RU,1703030028
411,ocean shores,46.9737,-124.1563,11.68,97,100,2.24,US,1703029906
412,karuzi,-3.125,30.1333,15.78,96,99,1.02,BI,1703030029
413,bardsir,29.9227,56.5743,3.51,35,66,1.01,IR,1703030029
414,bikenibeu village,1.3673,173.1241,29.98,84,75,6.69,KI,1703030029
415,tumbes,-3.5667,-80.4414,27.97,69,40,3.09,PE,1703030029
416,lata,40.1629,-8.3327,9.9,83,41,0.94,PT,1703030029
417,onguday,50.75,86.15,-13.07,95,100,0.57,RU,1703030030
418,zaigrayevo,51.8336,108.2703,-28.55,97,21,1.36,RU,1703030030
419,xuchang,34.0167,113.8167,-6.45,67,97,3.23,CN,1703030030
420,uturoa,-16.7333,-151.4333,26.85,82,100,5.42,PF,1703029930
421,aktau,43.65,51.2,5.32,79,100,2.7,KZ,1703030030
422,sinabang,2.4803,96.3801,26.23,83,97,0.32,ID,1703030030
423,pesqueira,-8.3578,-36.6964,22.55,81,86,3.23,BR,1703029779
424,korsakov,46.6328,142.7813,-7.09,83,100,10.66,RU,1703030032
425,inhambane,-23.865,35.3833,23.48,82,92,3.11,MZ,1703030032
426,robertsport,6.7533,-11.3686,26.67,68,4,1.45,LR,1703030032
427,songling,31.1933,120.7176,-0.49,50,52,4.64,CN,1703030032
428,nizhneudinsk,54.9076,99.0276,-27.48,88,6,3.32,RU,1703030033
429,mandera,3.9366,41.867,29.31,41,78,3.2,KE,1703030033
430,natal,-5.795,-35.2094,27.12,89,75,2.06,BR,1703029921
431,yangchun,22.1667,111.7833,9.37,73,81,3.68,CN,1703030033
432,jutai,-5.1833,-68.9,24.57,97,98,0.34,BR,1703030034
433,sao francisco,-15.9486,-44.8644,22.97,72,78,0.93,BR,1703030035
434,santa vitoria do palmar,-33.5189,-53.3681,18.63,67,87,5.21,BR,1703030022
435,revda,56.801,59.9303,-8.35,92,95,4.5,RU,1703030035
436,shizuishan,39.2333,106.7694,-17.15,74,0,2.63,CN,1703030035
437,al jaradiyah,16.5795,42.9124,23.72,68,0,2.0,SA,1703030036
438,sant antoni de portmany,38.9807,1.3036,14.42,76,0,2.06,ES,1703030036
439,baud,20.8333,84.3167,12.14,59,34,0.47,IN,1703030036
440,quepos,9.4236,-84.1652,26.87,81,34,0.97,CR,1703030036
441,puerto baquerizo moreno,-0.9,-89.6,24.38,90,98,5.23,EC,1703030036
442,nouadhibou,20.931,-17.0347,18.99,27,87,8.75,MR,1703030037
443,ko pha ngan,9.7578,100.0291,23.38,71,83,3.16,TH,1703030037
444,cumana,10.4635,-64.1775,26.27,87,18,4.77,VE,1703030037
445,namdrik,5.5994,168.1028,28.01,78,97,10.22,MH,1703030037
446,kapit,2.0167,112.9333,23.73,99,100,0.46,MY,1703030037
447,pahrump,36.2083,-115.9839,17.5,50,69,5.36,US,1703030037
448,moldova noua,44.7375,21.6669,4.33,68,2,1.94,RO,1703030037
449,lashkar gah,31.5938,64.3716,11.6,26,100,1.38,AF,1703030038
450,kabwe,-14.4469,28.4464,19.14,98,100,1.52,ZM,1703030038
451,asuncion nochixtlan,17.4667,-97.2333,8.98,66,0,2.91,MX,1703030038
452,tyukhtet,56.5389,89.3011,-20.29,80,68,3.94,RU,1703030038
453,pacific grove,36.6177,-121.9166,17.16,87,75,8.05,US,1703030038
454,vernon,50.2581,-119.2691,4.2,91,100,0.0,CA,1703030010
455,sao vicente,-23.9631,-46.3919,26.26,51,93,4.02,BR,1703030038
456,salalah,17.0151,54.0924,23.05,64,0,1.03,OM,1703030039
457,fisterra,42.9049,-9.2629,11.12,88,100,10.16,ES,1703030039
458,tofol,5.3248,163.0078,28.88,74,75,7.72,FM,1703030039
459,shingu,33.7333,135.9833,7.71,83,100,3.15,JP,1703030039
460,chrastava,50.8169,14.9688,6.23,82,100,2.24,CZ,1703030040
461,al'met'yevsk,54.9044,52.3154,-0.8,96,100,11.03,RU,1703030040
462,kilju,40.9642,129.3278,-11.83,68,69,2.6,KP,1703029847
463,prainha,-1.8,-53.48,24.57,92,100,0.45,BR,1703030040
464,nabire,-3.3667,135.4833,28.74,74,94,0.61,ID,1703030040
465,eastham,41.8301,-69.9739,6.99,77,0,3.58,US,1703030041
466,xai-xai,-25.0519,33.6442,22.78,92,37,1.11,MZ,1703030041
467,santana,-0.0583,-51.1817,28.1,78,75,6.17,BR,1703030041
468,tsiombe,-25.3,45.4833,23.29,83,69,4.7,MG,1703030041
469,tucurui,-3.7661,-49.6725,27.04,73,95,2.5,BR,1703030041
470,weinzierl bei krems,48.4,15.6,5.93,86,61,3.83,AT,1703030042
471,tolanaro,-25.0319,46.9987,25.04,83,40,5.14,MG,1703030042
472,saint-francois,46.4154,3.9054,4.8,100,100,4.12,FR,1703030042
473,san antonio de pale,-1.4014,5.6325,27.17,80,53,3.27,GQ,1703030042
474,mejit,10.2753,170.8646,27.06,77,85,10.91,MH,1703030042
475,taltal,-25.4,-70.4833,18.51,78,24,1.94,CL,1703030043
476,thinadhoo,0.5333,72.9333,28.17,77,54,2.42,MV,1703030043
477,akjoujt,19.6969,-14.4164,16.6,16,100,6.36,MR,1703030043
478,kisanga,-7.4362,37.7034,24.17,92,71,1.46,TZ,1703030043
479,savalou,7.9281,1.9756,26.13,28,53,0.62,BJ,1703030044
480,noumea,-22.2763,166.4572,30.99,99,7,6.62,NC,1703029611
481,amalner,21.05,75.0667,16.75,38,91,3.27,IN,1703030044
482,champerico,14.3,-91.9167,29.3,71,11,1.94,GT,1703030044
483,sohagpur,22.7,78.2,11.39,46,100,2.46,IN,1703030044
484,broken hill,-31.95,141.4333,18.76,22,0,9.92,AU,1703030044
485,fiambala,-27.6871,-67.6149,19.99,65,2,4.51,AR,1703030045
486,kupang,-10.1667,123.5833,31.32,70,20,4.12,ID,1703030045
487,shenjiamen,29.9576,122.298,7.08,65,100,11.33,CN,1703030045
488,manaquiri,-3.3167,-60.35,29.27,79,81,0.89,BR,1703030045
489,vila franca do campo,37.7167,-25.4333,16.23,87,100,4.56,PT,1703030045
490,sao jose da coroa grande,-8.8978,-35.1478,24.92,88,100,2.97,BR,1703030046
491,bulgan,48.8125,103.5347,-28.73,91,6,1.66,MN,1703030046
492,nanao,37.05,136.9667,6.11,94,100,1.78,JP,1703030046
493,matola,-25.9622,32.4589,23.18,83,44,2.17,MZ,1703030046
494,foumbot,5.5079,10.6356,19.4,57,99,1.82,CM,1703030047
495,pangody,65.85,74.4859,-12.18,93,98,6.33,RU,1703030047
496,harran,36.86,39.0314,7.66,51,30,2.89,TR,1703030047
497,jinchang,38.4953,102.1739,-13.54,81,2,0.54,CN,1703030047
498,adamovka,51.5223,59.9396,-11.08,98,67,4.31,RU,1703030047
499,zhicheng,30.2956,111.5047,0.78,74,38,0.97,CN,1703030047
500,slyudyanka,51.6594,103.7061,-23.11,89,4,2.35,RU,1703030048
501,riviere-du-loup,47.8304,-69.5342,-2.51,93,76,2.06,CA,1703030048
502,punta del este,-34.9667,-54.95,17.71,81,75,4.63,UY,1703030048
503,shengli,37.4564,118.4856,-12.3,80,28,3.86,CN,1703030048
504,kegeyli shahar,42.7767,59.6078,3.05,82,100,3.44,UZ,1703030048
505,paita,-5.0892,-81.1144,21.86,85,25,7.97,PE,1703030049
506,tabriz,38.08,46.2919,-2.3,74,40,3.09,IR,1703030049
507,bhisho,-32.8472,27.4422,16.29,93,58,2.75,ZA,1703030049
508,konstantinovka,49.6167,127.9833,-30.71,94,38,1.9,RU,1703030049
509,mvomero,-6.25,38.6667,24.65,92,100,1.47,TZ,1703030050
510,bakchar,57.0186,82.0711,-8.22,95,100,3.15,RU,1703030057
511,daru,-9.0763,143.2092,25.0,92,100,0.68,PG,1703030057
512,al burayqah,30.4062,19.5739,14.93,65,88,6.53,LY,1703030057
513,macas,-2.3167,-78.1167,23.86,78,40,2.57,EC,1703029806
514,'ali sabieh,11.1558,42.7125,22.07,90,83,7.9,DJ,1703030058
515,tieling,42.2931,123.8414,-20.46,83,70,1.49,CN,1703030058
516,beau vallon,-20.4189,57.6953,24.13,88,40,2.06,MU,1703030058
517,meiganga,6.5167,14.3,19.85,32,66,1.02,CM,1703030058
518,ataq,14.5377,46.8319,13.81,77,0,1.89,YE,1703030058
519,santa ana,33.7456,-117.8678,20.01,69,100,3.09,US,1703030059
520,mariupol,47.0667,37.5,5.78,100,63,4.02,UA,1703030059
521,tres valles,18.2406,-96.135,19.83,65,58,2.57,MX,1703030060
522,labrador city,52.9463,-66.9114,-10.05,85,75,3.6,CA,1703030060
523,kodinsk,58.6881,99.1844,-31.42,98,5,1.57,RU,1703030061
524,sungai penuh,-2.0833,101.3833,18.98,93,86,1.0,ID,1703030061
525,rio grande,-32.035,-52.0986,20.06,86,100,8.57,BR,1703030061
526,tepetzintla,21.1667,-97.8333,17.61,73,77,2.63,MX,1703030061
527,barra de santo antonio,-9.4047,-35.5072,23.6,86,100,5.61,BR,1703030062
528,porto novo,6.4965,2.6036,27.9,83,24,2.93,BJ,1703029741
529,miri,4.4148,114.0089,26.08,89,40,1.54,MY,1703030062
530,gazojak,41.1875,61.4036,0.0,60,6,3.06,TM,1703030062
531,hobyo,5.3505,48.5268,25.66,82,99,9.73,SO,1703030062
532,viedma,-40.8135,-62.9967,14.44,48,85,5.43,AR,1703029720
533,camaqua,-30.8511,-51.8122,20.44,96,100,4.63,BR,1703030062
534,az zawr,29.4425,48.2747,17.79,74,33,3.04,KW,1703030063
535,pochinok,54.4068,32.4407,1.52,100,100,6.12,RU,1703030063
536,altay,47.8667,88.1167,-13.06,65,100,1.77,CN,1703030063
537,mburucuya,-28.0454,-58.2245,21.56,83,100,5.81,AR,1703030063
538,saint-joseph,-21.3667,55.6167,25.21,83,100,0.68,RE,1703030063
539,perros-guirec,48.8145,-3.4396,10.28,83,78,1.34,FR,1703030064
540,jumla,29.2747,82.1838,3.21,13,3,2.67,NP,1703030064
541,huangzhou,30.45,114.8,2.47,80,77,2.82,CN,1703030064
542,pyhajarvi,67.0701,27.2176,-5.14,96,100,4.5,FI,1703030064
543,pavlovka,52.6897,47.1405,1.59,99,100,9.46,RU,1703030064
544,betio village,1.358,172.9211,30.02,83,99,10.33,KI,1703030064
545,ulsteinvik,62.3432,5.8487,3.37,71,98,4.02,NO,1703030065
546,aioun,16.6614,-9.6149,15.22,18,94,6.38,MR,1703030065
547,puerto santa,-8.9906,-78.6456,20.94,88,46,3.8,PE,1703030065
548,itamaraca,-7.7478,-34.8256,27.03,84,100,3.38,BR,1703030065
549,tocoa,15.6833,-86.0,24.79,94,99,0.56,HN,1703030066
550,las cruces,32.3123,-106.7783,15.58,26,100,0.45,US,1703029481
551,mil'kovo,55.6078,37.7956,4.11,98,100,6.03,RU,1703030066
552,aripuana,-9.1667,-60.6333,27.9,63,83,0.71,BR,1703030066
553,mutsu,41.2894,141.2169,-0.82,70,99,5.67,JP,1703030066
554,margate,51.3813,1.3862,5.94,87,44,3.58,GB,1703030067
555,lake city,30.1897,-82.6393,5.03,70,0,0.0,US,1703030067
556,brinkmann,-30.8659,-62.0374,19.99,87,100,5.01,AR,1703030067
557,queenstown,-31.8976,26.8753,13.28,96,9,0.78,ZA,1703030067
558,uvinza,-5.1036,30.3911,19.51,96,38,0.91,TZ,1703030067
559,kristiansund,63.1115,7.732,1.36,69,75,2.57,NO,1703030068
560,al hufuf,25.3646,49.5653,15.19,72,0,0.0,SA,1703030068
561,oranjemund,-28.55,16.4333,15.42,94,3,3.74,NA,1703030068
562,peshawar,34.008,71.5785,11.08,40,40,2.06,PK,1703030068
563,afif,23.9065,42.9172,12.79,25,0,4.22,SA,1703030068
564,la'ie,21.6477,-157.9253,26.98,75,100,10.65,US,1703030068
565,ketchikan,55.3422,-131.6461,4.26,93,75,2.06,US,1703030069
566,oppdal,62.5943,9.6912,-11.07,78,90,4.15,NO,1703030069
567,bishunpur urf maharajganj,26.2519,83.1186,11.51,44,94,2.23,IN,1703030069
568,adrar,20.5022,-10.0711,11.8,25,100,5.22,MR,1703030069
569,porto torres,40.835,8.3972,4.1,76,36,2.95,IT,1703030069
570,george,-33.963,22.4617,17.81,89,18,0.82,ZA,1703029963
571,point pedro,9.8167,80.2333,25.76,87,78,7.25,LK,1703030070
572,koh kong,11.6175,102.9806,25.29,75,77,2.83,KH,1703030070
